intervention,location,label,amount_fin,has_agreement,agreement_label,agreement_date,instability_type,location_label,region,province,lat,long
http://dati.isprambiente.it/id/ihi/intervention/05ir028/g9,http://dati.isprambiente.it/id/place/24051,Lavori urgenti di ripresa consolidamento difese sponda in destra e sinistra idraulica canale Bisatto,500000.00,http://dati.isprambiente.it/id/ihi/agreement/05ir028/g9,Del CIPE 35 Piano Nazionale 24/07/2019,2019-07-24,Alluvione,Longare,veneto,vicenza,45.4716851232905,11.6050253692924
http://dati.isprambiente.it/id/ihi/intervention/17ir427/g1,http://dati.isprambiente.it/id/place/76023,RIDUZIONE DEL RISCHIO IDROGEOLOGICO VIA GIARDINI,500833.56,http://dati.isprambiente.it/id/ihi/agreement/17ir427/g1,DPCM 02/12/2019 Piano op. dissesto 2019,2019-12-02,Frana,Castelluccio Superiore,basilicata,potenza,40.0205990286298,15.9441951013629
http://dati.isprambiente.it/id/ihi/intervention/09ir501/g1,http://dati.isprambiente.it/id/place/48006,Interventi urgenti sul T. Marina lotto 2 stralci 3 e 4,1103784.10,http://dati.isprambiente.it/id/ihi/agreement/09ir501/g1,Piano 2021 Toscana DM 534 15/12/2021,2021-12-15,Alluvione,Campi Bisenzio,toscana,firenze,43.8225069765017,11.1413652429887
http://dati.isprambiente.it/id/ihi/intervention/585/99,http://dati.isprambiente.it/id/place/78145,"Canalette, inerbimenti e rimboschimenti, reticoli di micropali.",516456.90,http://dati.isprambiente.it/id/ihi/agreement/585/99,DPCM 28/07/2000 (DSTN/2/15383),2000-07-28,Frana,Tarsia,calabria,cosenza,39.6348027377281,16.2776661676767
http://dati.isprambiente.it/id/ihi/intervention/20ir063/g1,http://dati.isprambiente.it/id/place/95019,Mitigazione del rischio idrogeologico nell'abitato di Cuglieri,1000000.00,http://dati.isprambiente.it/id/ihi/agreement/20ir063/g1,DD 353/CLE 16/12/2015 - Sardegna,2015-12-16,Frana,Cuglieri,sardegna,oristano,40.1498209552679,8.52957459933685
http://dati.isprambiente.it/id/ihi/intervention/15ir886/g1,http://dati.isprambiente.it/id/place/62037,Riduzione rischio idraulico-idrogeologico e geomorfologico con miglioramento ambientale e forestale,262850.44,http://dati.isprambiente.it/id/ihi/agreement/15ir886/g1,Fondo_Prog_Campania_09/08/2018,2018-08-09,Frana,Guardia Sanframondi,campania,benevento,41.2452838511476,14.5901207531977
http://dati.isprambiente.it/id/ihi/intervention/05ir017/g9,http://dati.isprambiente.it/id/place/29035,Realizzazione di un 2° stralcio di diaframma plastico dalla sommità arginale destra del fiume Adige,1300000.00,http://dati.isprambiente.it/id/ihi/agreement/05ir017/g9,Del CIPE 35 Piano Nazionale 24/07/2019,2019-07-24,Alluvione,Pettorazza Grimani,veneto,rovigo,45.119358857367,11.9981068219417
http://dati.isprambiente.it/id/ihi/intervention/ss001a/10,http://dati.isprambiente.it/id/place/90043,Frana linea ferroviaria Sassari - Chilivani località a valle del rio Mascari - 1° LOTTO (Interventi di sistemazione del versante finalizzati alla messa in sicurezza della linea ferroviaria Sassari-Chilivani),674925.73,http://dati.isprambiente.it/id/ihi/agreement/ss001a/10,AP Sardegna 23/12/2010,2010-12-23,Frana,Muros,sardegna,sassari,40.6914013413492,8.61988313816562
http://dati.isprambiente.it/id/ihi/intervention/413/99,http://dati.isprambiente.it/id/place/56026,CONSOLIDAMENTO ABITATO,309874.14,http://dati.isprambiente.it/id/ihi/agreement/413/99,DPCM 21/12/1999 (DSTN/2/27774),1999-12-21,Frana,Farnese,lazio,viterbo,42.5708751180902,11.7187215423978
http://dati.isprambiente.it/id/ihi/intervention/dait@21_2426/xm,http://dati.isprambiente.it/id/place/71023,ZONA CIMITERO COMUNALE*VIA CIMITERO*INTERVENTO DI MITIGAZIONE DEL RISCHIO IDROGEOLOGICO TESA AL COMPLETAMENTO E MESSA IN SICUREZZA DEL CIMITERO DEL COMUNE DI FAETO,500000.00,http://dati.isprambiente.it/id/ihi/agreement/dait@21_2426/xm,Decreto_Min_int_DAIT_23.02.2021,2021-02-23,Frana,Faeto,puglia,foggia,41.3077060914461,15.1479423003491
http://dati.isprambiente.it/id/ihi/intervention/dait@21_1431/xm,http://dati.isprambiente.it/id/place/10040,STRUTTURE E INFRASTRUTTURE PUBBLICHE (VIABILITA E OPERE D?ARTE CONNESSE)*LOCALITA VARIE*INTERVENTI DI MANUTENZIONE STRAORDINARIA PER DISSESTO IDROGEOLOGICO PER MESSA IN SICUREZZA E SISTEMAZIONE DEFINITIVA IN CONSEGUENZA DEI DANNI OCCORSI SUL TERRITORIO C,850000.00,http://dati.isprambiente.it/id/ihi/agreement/dait@21_1431/xm,Decreto_Min_int_DAIT_23.02.2021,2021-02-23,Non definito,Ne,liguria,genova,44.3527943327572,9.44594574758753
http://dati.isprambiente.it/id/ihi/intervention/088/09,http://dati.isprambiente.it/id/place/41067,Opere di consolidamento versante,200000.00,http://dati.isprambiente.it/id/ihi/agreement/088/09,DM 10/11/2008 (DDS/DEC/2008/0856 - 3°P. Strat.),2008-11-10,Frana,Urbino,marche,pesaro-e-urbino,43.7420611113712,12.6806651152637
http://dati.isprambiente.it/id/ihi/intervention/dait@19_0460/xm,http://dati.isprambiente.it/id/place/57070,"OPERE DI CONSOLIDAMENTO DEL VERSANTE DELL`ABITATO DEL CAPOLUOGO MEDIANTE STRUTTURE E INTERVENTI DI CONTENIMENTO: PALI, MURI, OPERE DI DRENAGGIO",1000000.00,http://dati.isprambiente.it/id/ihi/agreement/dait@19_0460/xm,Decreto_Min_int_DAIT_30_12_2019,2019-12-30,Frana,Torri in Sabina,lazio,rieti,42.3606438486823,12.6279564908612
http://dati.isprambiente.it/id/ihi/intervention/cb032a/10,http://dati.isprambiente.it/id/place/70049,"Sistemazione fenomeni di dissesto area Campo Sportivo e strada comunale ""Rocca"". (Formazione di drenaggi superficiali e profondi, di gabbionate e/o muri di sostegno e di palificate.)",200000.00,http://dati.isprambiente.it/id/ihi/agreement/cb032a/10,AP Molise 02/05/2011,2011-05-02,Frana,Oratino,molise,campobasso,41.5914600627855,14.5939108888123
http://dati.isprambiente.it/id/ihi/intervention/03ir409/g1,http://dati.isprambiente.it/id/place/14004,Interventi di drenaggio e sistemazione idrogeologica,255600.00,http://dati.isprambiente.it/id/ihi/agreement/03ir409/g1,Del CIPE 35 Piano Nazionale 24/07/2019,2019-07-24,Alluvione,Aprica,lombardia,sondrio,46.1311806485762,10.1468712942612
http://dati.isprambiente.it/id/ihi/intervention/499/99,http://dati.isprambiente.it/id/place/65096,SISTEMAZIONE COSTONE A RIDOSSO DELLA S.S. 447 DI PALINURO.,1032913.80,http://dati.isprambiente.it/id/ihi/agreement/499/99,DPCM 28/07/2000 (DSTN/2/15382),2000-07-28,Frana,Pisciotta,campania,salerno,40.1006605212367,15.2617872442175
http://dati.isprambiente.it/id/ihi/intervention/481/09,http://dati.isprambiente.it/id/place/80093,Lavori di eliminazione del rischio idraulico dell´abitato nella località Gagliano ed in prossimità della strada comunale FIDA,900000.00,http://dati.isprambiente.it/id/ihi/agreement/481/09,DM 27/11/2008 (DDS/DEC/2008/0912),2008-11-27,Alluvione,Taurianova,calabria,reggio-di-calabria,38.3704972713642,15.9923461402196
http://dati.isprambiente.it/id/ihi/intervention/dait@19_0150/xm,http://dati.isprambiente.it/id/place/63007,LAVORI DI MESSA IN SICUREZZA DELL`ALVEO DELL`OLMITELLO,850000.00,http://dati.isprambiente.it/id/ihi/agreement/dait@19_0150/xm,Decreto_Min_int_DAIT_30_12_2019,2019-12-30,Alluvione,Barano d'Ischia,campania,napoli,40.7164445993575,13.9237432849054
http://dati.isprambiente.it/id/ihi/intervention/dait@21_2093/xm,http://dati.isprambiente.it/id/place/6147,SANTA LIMBANIA*VERSANTE*LAVORI URGENTI PER LA MESSA IN SICUREZZA DEL VERSANTE SOTTOSTANTE SANTA LIMBANIA INTERESSATO DA VASTO DISSESTO IDROGEOLOGICO - EVENTO ALLUVIONALE 21-22/10/2019 E 21-25/11/2019 - 1? LOTTO FUNZIONALE,300000.00,http://dati.isprambiente.it/id/ihi/agreement/dait@21_2093/xm,Decreto_Min_int_DAIT_23.02.2021,2021-02-23,Frana,Rocca Grimalda,piemonte,alessandria,44.6929509865945,8.65497644488318
http://dati.isprambiente.it/id/ihi/intervention/485/99,http://dati.isprambiente.it/id/place/64092,INTERVENTO DI SVUOTAMENTO DELL´INVASO IN LOCALITÀ PATETTO-COLA-GALLINA,540730.37,http://dati.isprambiente.it/id/ihi/agreement/485/99,DPCM 28/07/2000 (DSTN/2/15382),2000-07-28,Frana,Sant'Angelo dei Lombardi,campania,avellino,40.919853022395,15.1753147634182
http://dati.isprambiente.it/id/ihi/intervention/dait@21_0708/xm,http://dati.isprambiente.it/id/place/64014,SISTEMAZIONE IDROGEOLOGICA DEL VALLONE FINOCCHIARA- LOTTO DUE*VIA ALTASEDE*SISTEMAZIONE IDROGEOLOGICA.,998837.97,http://dati.isprambiente.it/id/ihi/agreement/dait@21_0708/xm,Decreto_Min_int_DAIT_23.02.2021,2021-02-23,Alluvione,Calabritto,campania,avellino,40.7854846549534,15.1956172122365
http://dati.isprambiente.it/id/ihi/intervention/18ir559/g1,http://dati.isprambiente.it/id/place/80054,INTERVENTI DI DIFESA COSTIERA A SALVAGUARDIA DELLE INFRASTRUTTURE ED ABITAZIONI ESISTENTI LUNGO UN T,200000.00,http://dati.isprambiente.it/id/ihi/agreement/18ir559/g1,AP-int Calabria I 09/01/2018,2018-03-13,Costiero,Motta San Giovanni,calabria,reggio-di-calabria,38.0020928344206,15.7033746287141
http://dati.isprambiente.it/id/ihi/intervention/dait@21_2399/xm,http://dati.isprambiente.it/id/place/72030,"CANALE RECCHIA E TORRENTE PAGANO*VIA PROCACCIA, TRAIANA E ALTRE*RECUPERO IDROGEOLOGICO",5000000.00,http://dati.isprambiente.it/id/ihi/agreement/dait@21_2399/xm,Decreto_Min_int_DAIT_23.02.2021,2021-02-23,Alluvione,Monopoli,puglia,bari,40.8984219824556,17.2780650298113
http://dati.isprambiente.it/id/ihi/intervention/739/99,http://dati.isprambiente.it/id/place/46035,"DRENAGGI, OPERE DI SOSTEGNO, OPERE DI CONTENIMENTO.",92445.78,http://dati.isprambiente.it/id/ihi/agreement/739/99,DPCM 27/12/2002 (SDT/07108),2002-12-27,Frana,Villa Collemandina,toscana,lucca,44.1941229896092,10.3966968661836
http://dati.isprambiente.it/id/ihi/intervention/dait@21_0254/xm,http://dati.isprambiente.it/id/place/76040,INTERVENTI DI MITIGAZIONE DEL DISSESTO IDROGEOLOGICO DELLA ZONA OVEST DELL  ABITATO DI LATRONICO CENTRO*VIA ZANARDELLI*INTERVENTO DI DISSESTO IDROGEOLOGICO,999999.00,http://dati.isprambiente.it/id/ihi/agreement/dait@21_0254/xm,Decreto_Min_int_DAIT_23.02.2021,2021-02-23,Non definito,Latronico,basilicata,potenza,40.0839198786863,16.0121629604006
http://dati.isprambiente.it/id/ihi/intervention/is067a/10,http://dati.isprambiente.it/id/place/94028,"Ulteriori interventi di sistemazione idraulica del Torrente ""Ravindola"". (Ripristino e/o formazione di briglie e difese spondali con gabbioni o massi ciclopici.)",450000.00,http://dati.isprambiente.it/id/ihi/agreement/is067a/10,AP Molise 02/05/2011,2011-05-02,Frana,Montaquila,molise,isernia,41.5527021954653,14.1072382431282
http://dati.isprambiente.it/id/ihi/intervention/dait@21_2750/xm,http://dati.isprambiente.it/id/place/22230,REGIMAZIONE ACQUE BIANCHE VIA CASTEL BRAGHER*FRAZIONE COREDO*REGIMAZIONE ACQUE BIANCHE VIA CASTEL BRAGHER,150000.00,http://dati.isprambiente.it/id/ihi/agreement/dait@21_2750/xm,Decreto_Min_int_DAIT_23.02.2021,2021-02-23,Alluvione,missing,missing,missing,missing,missing
http://dati.isprambiente.it/id/ihi/intervention/pz015b/10,http://dati.isprambiente.it/id/place/76015,Sistemazione idrogeologica Fosso Varcaturo; Drenaggi e opere di difesa spondale,190000.00,http://dati.isprambiente.it/id/ihi/agreement/pz015b/10,AP Basilicata 14/12/2010,2010-12-14,Misto,Calvello,basilicata,potenza,40.4453511806429,15.8903054343283
http://dati.isprambiente.it/id/ihi/intervention/mt041a/10,http://dati.isprambiente.it/id/place/77016,"Messa in sicurezza dal rischio idraulico delle aree del centro storico del comune di Montalbano Jonico ; Opere di sistemazione idraulico - forestale, consolidamento e interventi di rinverdimento degli strati superficiali orizzontali e delle pendici.",350000.00,http://dati.isprambiente.it/id/ihi/agreement/mt041a/10,AP Basilicata 14/12/2010,2010-12-14,Frana,Montalbano Jonico,basilicata,matera,40.3030231442179,16.5817879362751
http://dati.isprambiente.it/id/ihi/intervention/11ir305/g1,http://dati.isprambiente.it/id/place/41044,Completamento realizzazione cassa di espansione sul Fiume Foglia in località Chiusa di Ginestreto,90000.00,http://dati.isprambiente.it/id/ihi/agreement/11ir305/g1,Fondo_Prog_Marche_I_DD 229 07/12/2021,2021-12-07,Alluvione,Pesaro,marche,pesaro-e-urbino,43.8906888035954,12.8671607847578
http://dati.isprambiente.it/id/ihi/intervention/dait@21_1042/xm,http://dati.isprambiente.it/id/place/37054,"VIA CASTEL DE BRITTI, 43*VIA CASTEL DE BRITTI, 43*MESSA IN SICUREZZA VIA CASTEL DE BRITTI, 43 PER DISSESTO IDROGEOLOGICO",380000.00,http://dati.isprambiente.it/id/ihi/agreement/dait@21_1042/xm,Decreto_Min_int_DAIT_23.02.2021,2021-02-23,Non definito,San Lazzaro di Savena,emilia-romagna,bologna,44.4507143682859,11.4261561565748
http://dati.isprambiente.it/id/ihi/intervention/cs141b/10,http://dati.isprambiente.it/id/place/78041,Interventi di mitigazione del rischio in Loc. La Sentinella,1500000.00,http://dati.isprambiente.it/id/ihi/agreement/cs141b/10,AP Calabria 25/11/2010,2010-11-25,Frana,Civita,calabria,cosenza,39.8288333147497,16.315908463961
http://dati.isprambiente.it/id/ihi/intervention/02ir062/g1,http://dati.isprambiente.it/id/place/7021,Int. mitig. rischio caduta massi da falesia rocciosa incombente su abitaz. a margine nord fr. Lillaz,980000.00,http://dati.isprambiente.it/id/ihi/agreement/02ir062/g1,AP-int Valle dAosta II 02/11/2020,2020-11-02,Frana,Cogne,valle-daosta,aosta,45.5899484440911,7.36822129041008
http://dati.isprambiente.it/id/ihi/intervention/06ir051/g1,http://dati.isprambiente.it/id/place/32003,Messa in sicurezza della S.P.14 di Muggia e dei versanti in prossimità di Punta Sottile,1000000.00,http://dati.isprambiente.it/id/ihi/agreement/06ir051/g1,Del CIPE 35 Piano Nazionale 24/07/2019,2019-07-24,Frana,Muggia,friuli-venezia-giulia,trieste,45.5963579590907,13.7704060481522
http://dati.isprambiente.it/id/ihi/intervention/392/09,http://dati.isprambiente.it/id/place/85003,MITIGAZIONE RISCHIO IDROGEOLOGICO CENTRO ABITATO BUTERA,1000000.00,http://dati.isprambiente.it/id/ihi/agreement/392/09,DM 27/11/2008 (DDS/DEC/2008/0913),2008-11-27,Non definito,Butera,sicilia,caltanissetta,37.2087562152018,14.1410652760086
http://dati.isprambiente.it/id/ihi/intervention/070/99,http://dati.isprambiente.it/id/place/14012,SISTEMAZIONE IDRAULICA,774685.35,http://dati.isprambiente.it/id/ihi/agreement/070/99,DPCM 21/12/1999 (DSTN/2/27773),1999-12-21,Alluvione,Campodolcino,lombardia,sondrio,46.4014241720014,9.31210656978942
http://dati.isprambiente.it/id/ihi/intervention/dait@21_2640/xm,http://dati.isprambiente.it/id/place/81020,TERRITORIO COMUNALE*TERRITORIO COMUNALE*INTERVENTI DI MESSA IN SICUREZZA PER DISSESTO IDROGEOLOGICO NEL TERRITORIO COMUNALE,995000.00,http://dati.isprambiente.it/id/ihi/agreement/dait@21_2640/xm,Decreto_Min_int_DAIT_23.02.2021,2021-02-23,Non definito,San Vito Lo Capo,sicilia,trapani,38.1240242379752,12.7588829254758
http://dati.isprambiente.it/id/ihi/intervention/dait@21_1617/xm,http://dati.isprambiente.it/id/place/17046,PARCHI COMUNALI*PARCHI*INTERVENTI DI COMPLETAMENTO DELL  ORDINANZA OCDP 55/2018 PER MESSA IN SICUREZZA PARCHI E AREE COMUNALI TAGLIO SELETTIVA ED ABBATTIMENTI PIANTE PER L  INCOLUMITA PUBBLICA IN CASO DI EVENTI ECCEZIONALI,100000.00,http://dati.isprambiente.it/id/ihi/agreement/dait@21_1617/xm,Decreto_Min_int_DAIT_23.02.2021,2021-02-23,Non definito,Cazzago San Martino,lombardia,brescia,45.5812500814349,10.0322104132378
http://dati.isprambiente.it/id/ihi/intervention/cn149a/10,http://dati.isprambiente.it/id/place/4193,"CONSOLIDAMENTO MOVIMENTO FRANOSO IN LOC. PIA (S.C. PER MANGO) (CONSOLIDAMENTO DEL PIANO DI SCORRIMENTO CON FONDAZIONI SU PALI, REGIMAZIONE IDRICA SUPERFICIALE E PROFONDA)",200000.00,http://dati.isprambiente.it/id/ihi/agreement/cn149a/10,AP Piemonte 17/11/2010,2010-11-17,Frana,Rocchetta Belbo,piemonte,cuneo,44.6386987407948,8.17470499446301
http://dati.isprambiente.it/id/ihi/intervention/496/02,http://dati.isprambiente.it/id/place/16191,Sistemazione area in dissesto,1000000.00,http://dati.isprambiente.it/id/ihi/agreement/496/02,DM 18/05/2004 (DS/2004/00164 - 9° stralcio),2004-05-18,Frana,Santa Brigida,lombardia,bergamo,45.9821852664683,9.61685412609535
http://dati.isprambiente.it/id/ihi/intervention/dait@21_1294/xm,http://dati.isprambiente.it/id/place/58042,LAVORI DI SISTEMAZIONE E MESSA IN SICUREZZA DEL VERSANTE SU VIA GARIBALDI*VIA GARIBALDI*MESSA IN SICUREZZA VERSANTE SU VIA GARIBALDI,998000.00,http://dati.isprambiente.it/id/ihi/agreement/dait@21_1294/xm,Decreto_Min_int_DAIT_23.02.2021,2021-02-23,Frana,Genazzano,lazio,roma,41.813572365556,12.9814220218841
http://dati.isprambiente.it/id/ihi/intervention/me074a/10,http://dati.isprambiente.it/id/place/83032,Consolidamento versante - Località Orto Grande,2200000.00,http://dati.isprambiente.it/id/ihi/agreement/me074a/10,AP Sicilia 30/03/2010,2010-03-30,Frana,Giardini-Naxos,sicilia,messina,37.816373914556,15.2543326941257
http://dati.isprambiente.it/id/ihi/intervention/dait@21_0849/xm,http://dati.isprambiente.it/id/place/61054,REALIZZAZIONE DI UNA STRADA EXTRAURBANA  PISTA CICLABILE E COLLETTORE FOGNARIO - CIRCUMVALLAZIONE EST*VIA STRADA VICINALE LE LENZE*REALIZZAZIONE DI UNA STRADA EXTRAURBANA  PISTA CICLABILE E COLLETTORE FOGNARIO - CIRCUMVALLAZIONE EST,1850000.00,http://dati.isprambiente.it/id/ihi/agreement/dait@21_0849/xm,Decreto_Min_int_DAIT_23.02.2021,2021-02-23,Alluvione,Parete,campania,caserta,40.9590353620447,14.1629123529399
http://dati.isprambiente.it/id/ihi/intervention/cz091b/10,http://dati.isprambiente.it/id/place/79073,Interventi di mitigazione del rischio nel Rione Marelle e nelle frazioni Persico e Muraglie,1000000.00,http://dati.isprambiente.it/id/ihi/agreement/cz091b/10,AP Calabria 25/11/2010,2010-11-25,Non definito,Martirano,calabria,catanzaro,39.0635666718345,16.2609798115166
http://dati.isprambiente.it/id/ihi/intervention/482/02,http://dati.isprambiente.it/id/place/30117,Regimazione idraulica del rio de lago di Fusine con realizzazione di opere idrauliche longitudinali dal lago inferiore alla confluenza del Rio Bianco.,1300000.00,http://dati.isprambiente.it/id/ihi/agreement/482/02,DM 18/05/2004 (DS/2004/00164 - 9° stralcio),2004-05-18,Alluvione,Tarvisio,friuli-venezia-giulia,udine,46.4781683853978,13.5852501459697
http://dati.isprambiente.it/id/ihi/intervention/ra071c/10,http://dati.isprambiente.it/id/place/39014,"Interventi alle opere di bonifica idraulica volti al contrasto dei fenomeni di subsidenza. (ID reg.#dato mancante#) (nel decreto comuni VARI) - Adeguamento, potenziamento e realizzazione di nuove opere sul reticolo di bonifica idraulica.",2479269.92,http://dati.isprambiente.it/id/ihi/agreement/ra071c/10,AP Emilia Romagna 03/11/2010,2010-11-03,Alluvione,Ravenna,emilia-romagna,ravenna,44.4161097613965,12.1879414998409
http://dati.isprambiente.it/id/ihi/intervention/015/b2,http://dati.isprambiente.it/id/place/42017,"Taglio del materiale bruciato morto in piedi, realizzazione di fascinate, sistemazioni di georeti in materiale biodegradabile, idrosemina.",1030847.97,http://dati.isprambiente.it/id/ihi/agreement/015/b2,DM 28/12/2001 (DEC/DM/2001-00381),2001-12-28,Incendio,Fabriano,marche,ancona,43.3257800789632,12.911571677618
http://dati.isprambiente.it/id/ihi/intervention/17ir531/g1,http://dati.isprambiente.it/id/place/76035,Opere di Consolidamento e Sistemazione del Centro Sorico e dell'abitato di Gallicchio,105799.83,http://dati.isprambiente.it/id/ihi/agreement/17ir531/g1,Fondo_Prog_Basilicata_II_DD_431_28/11/2019,2019-11-28,Frana,Gallicchio,basilicata,potenza,40.290536181768,16.134109501125
http://dati.isprambiente.it/id/ihi/intervention/ot019a/10,http://dati.isprambiente.it/id/place/90091,Interventi di manutenzione idraulica (intervento aggiunto in Comitato Indirizzo e controllo del 4-12-2014),1010600.00,http://dati.isprambiente.it/id/ihi/agreement/ot019a/10,AP-int Sardegna II 03/12/2013,2013-12-03,Alluvione,missing,missing,missing,missing,missing
http://dati.isprambiente.it/id/ihi/intervention/231/02,http://dati.isprambiente.it/id/place/79007,Consolidamento,800000.00,http://dati.isprambiente.it/id/ihi/agreement/231/02,DM 23/12/2002 (DT/2002/0303 - 5° stralcio),2002-12-23,Frana,Argusto,calabria,catanzaro,38.6855740631209,16.4487325123139
http://dati.isprambiente.it/id/ihi/intervention/cb034a/10,http://dati.isprambiente.it/id/place/70052,"Sistemazione dei dissesti idrogeologici interessanti il campo sportivo e Via Carissimi. (Formazione di drenaggi superficiali e profondi, di gabbionate e/o muri di sostegno e di palificate.)",200000.00,http://dati.isprambiente.it/id/ihi/agreement/cb034a/10,AP Molise 02/05/2011,2011-05-02,Frana,Petrella Tifernina,molise,campobasso,41.6902949285748,14.7014623668239
http://dati.isprambiente.it/id/ihi/intervention/pc044b/10,http://dati.isprambiente.it/id/place/33028,Interventi di sistemazione idrogeologica nel comune di Morfasso (PC) (ID reg.#1ER1119#) - Sistemazione del reticolo idrografico e dei versanti,250000.00,http://dati.isprambiente.it/id/ihi/agreement/pc044b/10,AP Emilia Romagna 03/11/2010,2010-11-03,Alluvione,Morfasso,emilia-romagna,piacenza,44.7226637447044,9.72577741874846
http://dati.isprambiente.it/id/ihi/intervention/dait@19_0190/xm,http://dati.isprambiente.it/id/place/58011,DIFESA DEL CENTRO ABITATO CON OPERE DI PROTEZIONE,500000.00,http://dati.isprambiente.it/id/ihi/agreement/dait@19_0190/xm,Decreto_Min_int_DAIT_30_12_2019,2019-12-30,Frana,Artena,lazio,roma,41.730990068691,12.9315718189432
http://dati.isprambiente.it/id/ihi/intervention/366/08,http://dati.isprambiente.it/id/place/71009,"Lavori di consolidamento in centro urbano versante collinare ""San Rocco""",780000.00,http://dati.isprambiente.it/id/ihi/agreement/366/08,DM 14/11/2007 (DDS/DEC/2007/1038),2007-11-14,Non definito,Candela,puglia,foggia,41.1476684160407,15.5193682166653
http://dati.isprambiente.it/id/ihi/intervention/dait@21_2331/xm,http://dati.isprambiente.it/id/place/1249,INTERVENTI DI MANUTENZIONE DEGLI ALVEI - TRATTI NON URBANIZZATI*CORSI D  ACQUA COMUNALI*INTERVENTI DI MANUTENZIONE DEGLI ALVEI - TRATTI NON URBANIZZATI,800000.00,http://dati.isprambiente.it/id/ihi/agreement/dait@21_2331/xm,Decreto_Min_int_DAIT_23.02.2021,2021-02-23,Alluvione,San Mauro Torinese,piemonte,torino,45.0971767806861,7.76511561931704
http://dati.isprambiente.it/id/ihi/intervention/11ir298/g1,http://dati.isprambiente.it/id/place/109001,Sistemazione idraulica e messa in sicurezza del Fosso delle Piene tra la S.S.16 e Via Einaudi,750000.00,http://dati.isprambiente.it/id/ihi/agreement/11ir298/g1,Piano 2021 Marche DM 485 25/11/2021,2021-11-25,Alluvione,Altidona,marche,fermo,43.0982524727231,13.7946370240757
http://dati.isprambiente.it/id/ihi/intervention/15ir937/g1,http://dati.isprambiente.it/id/place/61001,"Eliminazione dissesti idrogeologici in loc. Sant'Antonio, , a monte del centro storico",100233.00,http://dati.isprambiente.it/id/ihi/agreement/15ir937/g1,Fondo_Prog_Campania_09/08/2018,2018-08-09,Frana,Ailano,campania,caserta,41.3827627951547,14.1879098539695
http://dati.isprambiente.it/id/ihi/intervention/187/06,http://dati.isprambiente.it/id/place/55007,"Drenaggi profondi, riprofilatura versanti, ripristino sede stradale",790179.00,http://dati.isprambiente.it/id/ihi/agreement/187/06,DM 11/07/2005 (DS/2005/321 - 11° stralcio),2005-07-11,Frana,Baschi,umbria,terni,42.7134700742612,12.2860569685552
http://dati.isprambiente.it/id/ihi/intervention/dait@21_2109/xm,http://dati.isprambiente.it/id/place/6182,FRAZIONE ZANCO*VIA STRADA FRAZIONE ZANCO*LAVORI DI CONSOLIDAMENTO DISSESTO IDROGEOLOGICO VERSANTE IN FRANA A VALLE DELLA FRAZIONE ZANCO,555000.00,http://dati.isprambiente.it/id/ihi/agreement/dait@21_2109/xm,Decreto_Min_int_DAIT_23.02.2021,2021-02-23,Frana,Villadeati,piemonte,alessandria,45.0584637088689,8.16866498221589
http://dati.isprambiente.it/id/ihi/intervention/me100a/10,http://dati.isprambiente.it/id/place/83069,Opere di consolidamento u0096 Zona Centro abitato,0.00,http://dati.isprambiente.it/id/ihi/agreement/me100a/10,AP Sicilia 30/03/2010,2010-03-30,Non definito,Raccuja,sicilia,messina,38.0213200951051,14.9215964788153
http://dati.isprambiente.it/id/ihi/intervention/dait@19_0332/xm,http://dati.isprambiente.it/id/place/62058,MESSA IN SICUREZZA DEL TERRITORIO A RISCHIO IDROGEOLOGICO,299473.00,http://dati.isprambiente.it/id/ihi/agreement/dait@19_0332/xm,Decreto_Min_int_DAIT_30_12_2019,2019-12-30,Non definito,San Giorgio del Sannio,campania,benevento,41.1237500577239,14.8952983582134
http://dati.isprambiente.it/id/ihi/intervention/dait@19_0392/xm,http://dati.isprambiente.it/id/place/16094,REALIZZAZIONE DI TOMBOTTO SCOLMATORE DELLA VALLE MOLINO PER MITIGAZIONE RISCHIO IDROGEOLOGICO,250000.00,http://dati.isprambiente.it/id/ihi/agreement/dait@19_0392/xm,Decreto_Min_int_DAIT_30_12_2019,2019-12-30,Alluvione,Entratico,lombardia,bergamo,45.7035751708768,9.88777297041889
http://dati.isprambiente.it/id/ihi/intervention/145/02,http://dati.isprambiente.it/id/place/43036,drenaggi,51645.69,http://dati.isprambiente.it/id/ihi/agreement/145/02,DM 04/12/2002 (DT/2002/0281 - 3° stralcio),2002-12-04,Frana,Petriolo,marche,macerata,43.2220658159749,13.46026319315
http://dati.isprambiente.it/id/ihi/intervention/dait@21_0237/xm,http://dati.isprambiente.it/id/place/77022,LAVORI DI CONSOLIDAMENTO E SISTEMAZIONE IDROGEOLOGICA DEL FOSSO GISSO*CONTRADA GISSO*LAVORI DI CONSOLIDAMENTO E SISTEMAZIONE IDROGEOLOGICA DEL FOSSO GISSO,550000.00,http://dati.isprambiente.it/id/ihi/agreement/dait@21_0237/xm,Decreto_Min_int_DAIT_23.02.2021,2021-02-23,Alluvione,Pomarico,basilicata,matera,40.4984650294728,16.5547543984546
http://dati.isprambiente.it/id/ihi/intervention/497/99,http://dati.isprambiente.it/id/place/65107,OPERE DI SISTEMAZIONE IDRAULICA,258228.45,http://dati.isprambiente.it/id/ihi/agreement/497/99,DPCM 28/07/2000 (DSTN/2/15382),2000-07-28,Alluvione,Roccagloriosa,campania,salerno,40.1174452744751,15.4424324501327
http://dati.isprambiente.it/id/ihi/intervention/070/98,http://dati.isprambiente.it/id/place/81011,Consolidamento loc. Timpone d´Oro comune di Marsala (TP).,1291142.25,http://dati.isprambiente.it/id/ihi/agreement/070/98,DPCM 12/01/1999 (G.U. n 53 del 05/03/1999),1999-01-12,Frana,Marsala,sicilia,trapani,37.8184854240816,12.4916700453329
http://dati.isprambiente.it/id/ihi/intervention/178/08,http://dati.isprambiente.it/id/place/41008,"Palificata, muro, rete metallcia",200000.00,http://dati.isprambiente.it/id/ihi/agreement/178/08,DM 26/11/2007 (DEC/DDS/2007/1081 - 2°P. Strat.),2007-11-26,Frana,Cantiano,marche,pesaro-e-urbino,43.4658305190006,12.6290689357984
http://dati.isprambiente.it/id/ihi/intervention/dait@21_0146/xm,http://dati.isprambiente.it/id/place/68002,STRADA COMUNALE DI VIA DEL SOLE IN ALANNO CENTRO URBANO E RELATIVI EDIFICI PRIVATI*VIA DEL SOLE*INTERVENTO DI RISANAMENTO IDROGEOLOGICO E CONSOLIDAMENTO DEL VERSANTE SUD NEL CENTRO ABITATO?,1000000.00,http://dati.isprambiente.it/id/ihi/agreement/dait@21_0146/xm,Decreto_Min_int_DAIT_23.02.2021,2021-02-23,Misto,Alanno,abruzzo,pescara,42.2928689466031,13.9885214243255
http://dati.isprambiente.it/id/ihi/intervention/dait@21_0883/xm,http://dati.isprambiente.it/id/place/63019,LOCALITA   PARADISIELLO*PARADISIELLO*MITIGAZIONE DEL RISCHIO E DISSESTO IDROGEOLOGICO,971262.63,http://dati.isprambiente.it/id/ihi/agreement/dait@21_0883/xm,Decreto_Min_int_DAIT_23.02.2021,2021-02-23,Non definito,Casamicciola Terme,campania,napoli,40.7392991563504,13.9112171609128
http://dati.isprambiente.it/id/ihi/intervention/19ir911/g1,http://dati.isprambiente.it/id/place/83094,Completamento dei lavori di protezione dell abitato della Fraz. Divieto cod. PAI 102-5SZ- 020,58016.01,http://dati.isprambiente.it/id/ihi/agreement/19ir911/g1,Fondo_Prog_Sicilia  22/11/2017,2017-11-22,Frana,Scaletta Zanclea,sicilia,messina,38.0497796438134,15.4579012966233
http://dati.isprambiente.it/id/ihi/intervention/dait@21_1566/xm,http://dati.isprambiente.it/id/place/16093,INTERVENTO DI MESSA IN SICUREZZA DEL TERRITORIO PER IL RIPRISTINO DEL MUNICIPIO E DEL EX MUNICIPIO AMMALORATI IN RELAZIONE ALL  EROSIONE DELLA SOTTOSTANTE ASTA FLUVIALE RETICOLO IDRICO MINORE*VIA FRANCESCO NULLO*INTERVENTO DI MESSA IN SICUREZZA DEL TERRI,920000.00,http://dati.isprambiente.it/id/ihi/agreement/dait@21_1566/xm,Decreto_Min_int_DAIT_23.02.2021,2021-02-23,Alluvione,Endine Gaiano,lombardia,bergamo,45.7862564081096,9.9785125638731
http://dati.isprambiente.it/id/ihi/intervention/510/99,http://dati.isprambiente.it/id/place/71003,"SOSTITUZIONE MANUFATTI ESISTENTI CONSOLIDAMENTO PIEDE AREE IN MOVIMENTO, TRINCEE DRENANTI",1239496.56,http://dati.isprambiente.it/id/ihi/agreement/510/99,DPCM 21/12/1999 (DSTN/2/27779),1999-12-21,Misto,Anzano di Puglia,puglia,foggia,41.1115719118398,15.2903789347941
http://dati.isprambiente.it/id/ihi/intervention/010/ec,http://dati.isprambiente.it/id/place/24015,"Utilizzo delle economie intervento 370/09 ""Progetto finalizzato ad abattere il rischio di esondazioni in Comune di Brendola attraverso la laminazione delle piene - lavori complementari""",0.00,http://dati.isprambiente.it/id/ihi/agreement/010/ec,Nota D.G.TRI Div X del 11.04.2014 (prot. TRI10581),2014-04-11,Alluvione,Brendola,veneto,vicenza,45.4652260175723,11.4532388635141
http://dati.isprambiente.it/id/ihi/intervention/dait@21_1610/xm,http://dati.isprambiente.it/id/place/16242,TORRENTE URIA E AFFLUENTI*VIA VARIE*MESSA IN SICUREZZA TORRENTE URIA E AFFLUENTI,300000.00,http://dati.isprambiente.it/id/ihi/agreement/dait@21_1610/xm,Decreto_Min_int_DAIT_23.02.2021,2021-02-23,Alluvione,Villongo,lombardia,bergamo,45.6723357729754,9.92654591230217
http://dati.isprambiente.it/id/ihi/intervention/239/08,http://dati.isprambiente.it/id/place/6145,Completamento consolidamento dissesto fronte est del centro abitato,700000.00,http://dati.isprambiente.it/id/ihi/agreement/239/08,DM 26/11/2007 (DEC/DDS/2007/1081 - 2°P. Strat.),2007-11-26,Non definito,Rivarone,piemonte,alessandria,44.9737346600947,8.70185361682053
http://dati.isprambiente.it/id/ihi/intervention/006/06,http://dati.isprambiente.it/id/place/79003,Esecuzione di opere di contenimento e sistemazione dell´alveo del Torrente,800000.00,http://dati.isprambiente.it/id/ihi/agreement/006/06,DM 22/12/2004 (DS/2004/00626 - 10° stralcio),2004-12-22,Alluvione,Amaroni,calabria,catanzaro,38.7912339334055,16.4420028355826
http://dati.isprambiente.it/id/ihi/intervention/dait@21_0031/xm,http://dati.isprambiente.it/id/place/69038,MESSA IN SICUREZZA DEL CENTRO ABITATO IN ZONA A RISCHIO IDROGEOLOGICO ELEVATO*CENTRO ABITATO*SONO PREVISTI INTERVENTI PER L  ADEGUAMENTO E LA MESSA IN SICUREZZA DI AREA INTERNA AL CENTRO ABITATO,997000.00,http://dati.isprambiente.it/id/ihi/agreement/dait@21_0031/xm,Decreto_Min_int_DAIT_23.02.2021,2021-02-23,Non definito,Furci,abruzzo,chieti,42.0251165322367,14.5890559414847
http://dati.isprambiente.it/id/ihi/intervention/tv059c/10,http://dati.isprambiente.it/id/place/26092,"Dissesto idrogeologico in località Santa Augusta, via Vinera - Lavori di sistemazione frane",0.00,http://dati.isprambiente.it/id/ihi/agreement/tv059c/10,AP Veneto 23/12/2010,2010-12-23,Frana,Vittorio Veneto,veneto,treviso,46.003942155369,12.2967092183271
http://dati.isprambiente.it/id/ihi/intervention/085/06,http://dati.isprambiente.it/id/place/68024,"muri su pali tirantati, terre rinforzate e drenaggi",1000000.00,http://dati.isprambiente.it/id/ihi/agreement/085/06,DM 22/12/2004 (DS/2004/00626 - 10° stralcio),2004-12-22,Frana,Montesilvano,abruzzo,pescara,42.4933853847901,14.141833272777
http://dati.isprambiente.it/id/ihi/intervention/dait@21_0460/xm,http://dati.isprambiente.it/id/place/78092,SISTEMAZIONE E MITIGAZIONE ZONE IN FRANA STRADA SP3 - AVENA*STRADA SP3 - AVENA*SISTEMAZIONE E MITIGAZIONE ZONE IN FRANA STRADA SP3 - AVENA,250000.00,http://dati.isprambiente.it/id/ihi/agreement/dait@21_0460/xm,Decreto_Min_int_DAIT_23.02.2021,2021-02-23,Frana,Papasidero,calabria,cosenza,39.8779345384203,15.9317841023866
http://dati.isprambiente.it/id/ihi/intervention/dait@21_0591/xm,http://dati.isprambiente.it/id/place/80057,INTERVENTI DI MESSA IN SICUREZZA DEL TERRITORIO A RISCHIO IDROGEOLOGICO.*LOC. MARINELLA*MESSA IN SICUREZZA DEL COSTONE S.ELIA LOCALITA   MARINELLA.,2000000.00,http://dati.isprambiente.it/id/ihi/agreement/dait@21_0591/xm,Decreto_Min_int_DAIT_23.02.2021,2021-02-23,Frana,Palmi,calabria,reggio-di-calabria,38.354383923746,15.849963965538
http://dati.isprambiente.it/id/ihi/intervention/535/99,http://dati.isprambiente.it/id/place/71044,"PALIFICATA DI SOSTEGNO SUL BORDO ESTERNO DELLA SEDE STRADALE, EVENTUALI DRENI PROFONDI",516456.90,http://dati.isprambiente.it/id/ihi/agreement/535/99,DPCM 21/12/1999 (DSTN/2/27779),1999-12-21,Frana,Roseto Valfortore,puglia,foggia,41.3569357961235,15.1099421233662
http://dati.isprambiente.it/id/ihi/intervention/08ir400/g1,http://dati.isprambiente.it/id/place/33017,Intervento di manutenzione straordinaria di opere idrauliche sul F. Trebbia e T. Cordarezza in località varie del comune di Cortebrugnatella,100000.00,http://dati.isprambiente.it/id/ihi/agreement/08ir400/g1,AP-int Emilia Romagna IV 20/12/2017,2017-12-20,Alluvione,Corte Brugnatella,emilia-romagna,piacenza,44.7154804770958,9.34324131927883
http://dati.isprambiente.it/id/ihi/intervention/482/09,http://dati.isprambiente.it/id/place/80085,Mitigazione rischio frana e colate rapide costone roccioso Scilla-Bagnara Calabra,1500000.00,http://dati.isprambiente.it/id/ihi/agreement/482/09,DM 27/11/2008 (DDS/DEC/2008/0912),2008-11-27,Frana,Scilla,calabria,reggio-di-calabria,38.2421799639389,15.733539243583
http://dati.isprambiente.it/id/ihi/intervention/dait@21_2688/xm,http://dati.isprambiente.it/id/place/46015,VIABILITA E RETICOLO IDRAULICO INTERNI ALLA FRAZIONE DI BOLOGNANA*FRAZIONE BOLOGNANA*RIPRISTINO RETICOLO IDRAULICO MINORE E VIABILITA INTERNA NELLA FRAZIONE DI BOLOGNANA,97000.00,http://dati.isprambiente.it/id/ihi/agreement/dait@21_2688/xm,Decreto_Min_int_DAIT_23.02.2021,2021-02-23,Alluvione,Gallicano,toscana,lucca,44.0532152878585,10.4397273609068
http://dati.isprambiente.it/id/ihi/intervention/pg008a/10,http://dati.isprambiente.it/id/place/54018,"Intervento di messa in sicurezza zona industriale La Paciana e abitati nei comuni di Foligno e Spello - Nuove arginature, risagomature d'alveo, rifacimento ponti e  attraversamenti Infrastrutturali sul T. Chiona",981268.11,http://dati.isprambiente.it/id/ihi/agreement/pg008a/10,AP Umbria 03/11/2010,2010-11-03,Alluvione,Foligno,umbria,perugia,42.971067015733,12.7815185641144
http://dati.isprambiente.it/id/ihi/intervention/vt032a/10,http://dati.isprambiente.it/id/place/56050,Stabilizzazione geomorfologica della rupe a nord-ovest del centro storico di Tarquinia (Consolidamento di scarpate),465000.00,http://dati.isprambiente.it/id/ihi/agreement/vt032a/10,AP Lazio 15/07/2010,2010-07-15,Frana,Tarquinia,lazio,viterbo,42.2620878845541,11.7578537515124
http://dati.isprambiente.it/id/ihi/intervention/bi091a/10,http://dati.isprambiente.it/id/place/96047,SISTEMAZIONE RETICOLO IDROGRAFICO IN SINISTRA ELVO TRA PONDERANO E SALUSSOLA (LAVORI DI ADEGUAMENTO IDRAULICO RETE IDROGRAFICA MINORE E NUOVE OPERE DI DIFESA),140000.00,http://dati.isprambiente.it/id/ihi/agreement/bi091a/10,AP Piemonte 17/11/2010,2010-11-17,Alluvione,Ponderano,piemonte,biella,45.530486468521,8.05049450663574
http://dati.isprambiente.it/id/ihi/intervention/158/07,http://dati.isprambiente.it/id/place/42018,"Manutenzione alveo, abbassamenti fondo ai ponti, riprofilatura alveo, rialzo sponde, vasca di laminazione monte.",700000.00,http://dati.isprambiente.it/id/ihi/agreement/158/07,DM 03/11/2006 (DDS/DEC/2006/0632 - 1°P. Strat.),2006-11-03,Alluvione,Falconara Marittima,marche,ancona,43.6211830145303,13.3740972862981
http://dati.isprambiente.it/id/ihi/intervention/149/02,http://dati.isprambiente.it/id/place/44044,opere di protezione da valanga,232405.60,http://dati.isprambiente.it/id/ihi/agreement/149/02,DM 04/12/2002 (DT/2002/0281 - 3° stralcio),2002-12-04,Valanga,Montemonaco,marche,ascoli-piceno,42.8907971738172,13.3033213427188
http://dati.isprambiente.it/id/ihi/intervention/02ir033/g1,http://dati.isprambiente.it/id/place/7070,Opere di mitigazione del rischio di caduta massi a monte della SR 23 in loc. Fenille a Valsavarenche,882051.00,http://dati.isprambiente.it/id/ihi/agreement/02ir033/g1,Del CIPE 35 Piano Nazionale 24/07/2019,2019-07-24,Frana,Valsavarenche,valle-daosta,aosta,45.5516427517048,7.20956119524539
http://dati.isprambiente.it/id/ihi/intervention/dait@21_2252/xm,http://dati.isprambiente.it/id/place/4220,RIO GRILLO*VIA S.P.*ADEGUAMENTO IDRAULICO E MESSA IN SICUREZZA ATTRAVERSAMENTO DEL RIO GRILLO SULLA S.P.,120000.00,http://dati.isprambiente.it/id/ihi/agreement/dait@21_2252/xm,Decreto_Min_int_DAIT_23.02.2021,2021-02-23,Alluvione,Sinio,piemonte,cuneo,44.6047488139102,8.02486163845714
http://dati.isprambiente.it/id/ihi/intervention/009/98,http://dati.isprambiente.it/id/place/12086,Sistemazione rete idraulica superficiale a difesa dell´abitato di Ponte Tresa (VA),309874.14,http://dati.isprambiente.it/id/ihi/agreement/009/98,DPCM 12/01/1999 (G.U. n 53 del 05/03/1999),1999-01-12,Alluvione,Lavena Ponte Tresa,lombardia,varese,45.9572902578369,8.8623362891592
http://dati.isprambiente.it/id/ihi/intervention/dait@21_1338/xm,http://dati.isprambiente.it/id/place/58085,INTERVENTI DI MITIGAZIONE DEL DISSESTO IDROGEOLOGICO VIA IRANO*VIA IRANO*RIPRISTINO DELLA FRANA/SMOTTAMENTO DI VIA IRANO,350000.00,http://dati.isprambiente.it/id/ihi/agreement/dait@21_1338/xm,Decreto_Min_int_DAIT_23.02.2021,2021-02-23,Frana,Rocca di Cave,lazio,roma,41.8424880793148,12.9427281695971
http://dati.isprambiente.it/id/ihi/intervention/179/08,http://dati.isprambiente.it/id/place/44012,"Rivestimenti, impermeabilizzazioni, cordoli su pali",540000.00,http://dati.isprambiente.it/id/ihi/agreement/179/08,DM 26/11/2007 (DEC/DDS/2007/1081 - 2°P. Strat.),2007-11-26,Frana,Castignano,marche,ascoli-piceno,42.9348621279735,13.6007651197153
http://dati.isprambiente.it/id/ihi/intervention/337/99,http://dati.isprambiente.it/id/place/42034,"MONITORAGGI, DRENAGGI, MURI DI CONTENIMENTO DELLA STRADA",413165.52,http://dati.isprambiente.it/id/ihi/agreement/337/99,DPCM 21/12/1999 (DSTN/2/27776),1999-12-21,Frana,Osimo,marche,ancona,43.4819534312313,13.4489084869995
http://dati.isprambiente.it/id/ihi/intervention/dait@21_0513/xm,http://dati.isprambiente.it/id/place/78155,VERSANTE IN LOCALITA   MALAVICINA*VIA MALAVICINA*INTERVENTO DI MITIGAZIONE DEL RISCHIO IDROGEOLOGICO DEL VERSANTE IN LOCALITA   MALAVICINA,1000000.00,http://dati.isprambiente.it/id/ihi/agreement/dait@21_0513/xm,Decreto_Min_int_DAIT_23.02.2021,2021-02-23,Frana,Zumpano,calabria,cosenza,39.3159602890606,16.2761737683468
http://dati.isprambiente.it/id/ihi/intervention/052/99,http://dati.isprambiente.it/id/place/97034,DIFESE ATTIVE E PASSIVE PER CROLLI E COLATE,309874.14,http://dati.isprambiente.it/id/ihi/agreement/052/99,DPCM 21/12/1999 (DSTN/2/27773),1999-12-21,Frana,Erve,lombardia,lecco,45.823403517632,9.45433587020347
http://dati.isprambiente.it/id/ihi/intervention/dait@19_0431/xm,http://dati.isprambiente.it/id/place/71044,MESSA IN SICUREZZA E RIPRISTINO TRANSITABILIT<U+FFFD> DELLA STRADA COMUNALE INTERESSATA DA NUMEROSI CORPI DI FRANA,1280000.00,http://dati.isprambiente.it/id/ihi/agreement/dait@19_0431/xm,Decreto_Min_int_DAIT_30_12_2019,2019-12-30,Frana,Roseto Valfortore,puglia,foggia,41.3569357961235,15.1099421233662
http://dati.isprambiente.it/id/ihi/intervention/fg052a/10,http://dati.isprambiente.it/id/place/71052,Consolidamento versante Via Pagano Gizzoli - Via Della Libertà,1650000.00,http://dati.isprambiente.it/id/ihi/agreement/fg052a/10,AP Puglia 24/11/2010,2010-11-24,Frana,Sant'Agata di Puglia,puglia,foggia,41.1455131657532,15.3840184574777
http://dati.isprambiente.it/id/ihi/intervention/13ir669/g1,http://dati.isprambiente.it/id/place/69098,Lavori di consolidamento e risanamento idrogeologico del centro abitato di Vacri e loc. Acquaviva,1200000.00,http://dati.isprambiente.it/id/ihi/agreement/13ir669/g1,AP-int Abruzzo III  05/12/2018,2019-07-19,Frana,Vacri,abruzzo,chieti,42.2919531233855,14.231914036234
http://dati.isprambiente.it/id/ihi/intervention/345/02,http://dati.isprambiente.it/id/place/54001,Bonifica e regimentazione torrente Teschio.,820000.00,http://dati.isprambiente.it/id/ihi/agreement/345/02,DM 18/05/2004 (DS/2004/00164 - 9° stralcio),2004-05-18,Alluvione,Assisi,umbria,perugia,43.0923142253063,12.6730176986499
http://dati.isprambiente.it/id/ihi/intervention/794/99,http://dati.isprambiente.it/id/place/42045,Ricostruzione Ponte Portone,258280.10,http://dati.isprambiente.it/id/ihi/agreement/794/99,DPCM 27/12/2002 (SDT/7116),2002-12-27,Alluvione,Senigallia,marche,ancona,43.6788698653491,13.2100277096746
http://dati.isprambiente.it/id/ihi/intervention/dait@21_0066/xm,http://dati.isprambiente.it/id/place/69080,VERSANTE OVEST CENTRO ABITATO*VERSANTE OVEST CENTRO ABITATO*MESSA IN SICUREZZA DEL TERRITORIO A RISCHIO IDROGEOLOGICO SUL VERSANTE OVEST DEL CENTRO ABITATO,520000.00,http://dati.isprambiente.it/id/ihi/agreement/dait@21_0066/xm,Decreto_Min_int_DAIT_23.02.2021,2021-02-23,Frana,San Giovanni Lipioni,abruzzo,chieti,41.8438818199006,14.5687668409201
http://dati.isprambiente.it/id/ihi/intervention/bg002a/10,http://dati.isprambiente.it/id/place/16008,Sistemazione frane lungo la strada per Monte di Nese  (Opere di stabilizzazione del versante),400000.00,http://dati.isprambiente.it/id/ihi/agreement/bg002a/10,AP Lombardia 04/11/2010,2010-11-04,Frana,Alzano Lombardo,lombardia,bergamo,45.7545590179616,9.71416569755718
http://dati.isprambiente.it/id/ihi/intervention/mc084b/10,http://dati.isprambiente.it/id/place/43049,Consolidamento dissesto idrogeologico,500000.00,http://dati.isprambiente.it/id/ihi/agreement/mc084b/10,AP-int Marche 15/10/2014,2014-10-15,Frana,Sarnano,marche,macerata,43.0224716605765,13.2832054406278
http://dati.isprambiente.it/id/ihi/intervention/no160a/10,http://dati.isprambiente.it/id/place/2137,CONSOLIDAMENTO VERSANTE SP VINTEBBIO (OPERE DI CONSOLIDAMENTO ATTIVO E REGIMAZIONE ACQUE),100000.00,http://dati.isprambiente.it/id/ihi/agreement/no160a/10,AP Piemonte 17/11/2010,2010-11-17,Frana,Serravalle Sesia,piemonte,vercelli,45.6752100637843,8.31104218416641
http://dati.isprambiente.it/id/ihi/intervention/dait@21_0099/xm,http://dati.isprambiente.it/id/place/66029,FOSSO SAVINA MESSA IN SICUREZZA*VIA DELLE SCUOLE 39*REGIMENTAZIONE ACQUE,399900.00,http://dati.isprambiente.it/id/ihi/agreement/dait@21_0099/xm,Decreto_Min_int_DAIT_23.02.2021,2021-02-23,Alluvione,Castellafiume,abruzzo,laquila,41.9753567373679,13.3263754455777
http://dati.isprambiente.it/id/ihi/intervention/dait@21_1031/xm,http://dati.isprambiente.it/id/place/65153,CENTRO URBANO*VIA CENTRO URBANO VALLE DELL  ANGELO*RISANAMENTO DISSESTO DIFFUSO NELL  AREA URBANA DEL COMUNE DI VALLE DELL  ANGELO,1000000.00,http://dati.isprambiente.it/id/ihi/agreement/dait@21_1031/xm,Decreto_Min_int_DAIT_23.02.2021,2021-02-23,Non definito,Valle dell'Angelo,campania,salerno,40.2967873668443,15.4000741608152
http://dati.isprambiente.it/id/ihi/intervention/dait@21_2141/xm,http://dati.isprambiente.it/id/place/5077,STRADE COMUNALI E VICINALI DI USO PUBBLICO*VIA TERRITORIO COMUNALE*MESSA IN SICUREZZA DI ALCUNI TRATTI DI STRADE COMUNALI  E VICINALI DI USO PUBBLICO,65000.00,http://dati.isprambiente.it/id/ihi/agreement/dait@21_2141/xm,Decreto_Min_int_DAIT_23.02.2021,2021-02-23,Non definito,Montemagno,piemonte,asti,44.9749573404978,8.33030224170324
http://dati.isprambiente.it/id/ihi/intervention/156/06,http://dati.isprambiente.it/id/place/60079,"Paratie tirantate, gabbionate, regimazione idraulica delle acque superficiali e profonde",1274437.00,http://dati.isprambiente.it/id/ihi/agreement/156/06,DM 22/12/2004 (DS/2004/00626 - 10° stralcio),2004-12-22,Frana,Torrice,lazio,frosinone,41.6272568162983,13.3998515665026
http://dati.isprambiente.it/id/ihi/intervention/093/07,http://dati.isprambiente.it/id/place/60049,Sistemazione dissesto idrogeologico,1196000.00,http://dati.isprambiente.it/id/ihi/agreement/093/07,DM 03/11/2006 (DDS/DEC/2006/0632 - 1°P. Strat.),2006-11-03,Non definito,Pescosolido,lazio,frosinone,41.7710156547016,13.6607763353783
http://dati.isprambiente.it/id/ihi/intervention/163/09,http://dati.isprambiente.it/id/place/76003,Consolidamento frana nell´area sottostante la strada provinciale,600000.00,http://dati.isprambiente.it/id/ihi/agreement/163/09,DM 10/11/2008 (DDS/DEC/2008/0855 - Ann. 2008),2008-11-10,Frana,Albano di Lucania,basilicata,potenza,40.602447649623,16.0364111325802
http://dati.isprambiente.it/id/ihi/intervention/498/99,http://dati.isprambiente.it/id/place/65032,OPERE DI DIFESA SPONDALE,103291.38,http://dati.isprambiente.it/id/ihi/agreement/498/99,DPCM 28/07/2000 (DSTN/2/15382),2000-07-28,Alluvione,Castelnuovo Cilento,campania,salerno,40.2122115202433,15.1782443078866
http://dati.isprambiente.it/id/ihi/intervention/dait@21_1546/xm,http://dati.isprambiente.it/id/place/16012,FRAZIONE RONCHI ALTI*FRAZIONE RONCHI ALTI*INTERVENTI DI PROTEZIONE E MESSA IN SICUREZZA,590000.00,http://dati.isprambiente.it/id/ihi/agreement/dait@21_1546/xm,Decreto_Min_int_DAIT_23.02.2021,2021-02-23,Frana,Ardesio,lombardia,bergamo,45.9456199919809,9.88829193546798
http://dati.isprambiente.it/id/ihi/intervention/mn091a/10,http://dati.isprambiente.it/id/place/20015,"Sistemazione idraulica del canale Osone  (Opere di regimazione idraulica). comuni di: CASTEL GOFFREDO, CERESARA",150000.00,http://dati.isprambiente.it/id/ihi/agreement/mn091a/10,AP Lombardia 04/11/2010,2010-11-04,Alluvione,Castel Goffredo,lombardia,mantova,45.3001158983787,10.4549617130642
http://dati.isprambiente.it/id/ihi/intervention/720/99,http://dati.isprambiente.it/id/place/40022,SISTEMAZIONE E STABILIZZAZIONE SCARPATA ROCCIOSA SITA TRA VIA CASADEI E VIA FORO DEI TIGLI.,222076.47,http://dati.isprambiente.it/id/ihi/agreement/720/99,DPCM 27/12/2002 (SDT/7120),2002-12-27,Frana,Modigliana,emilia-romagna,forli-cesena,44.1491359347075,11.7979481253718
http://dati.isprambiente.it/id/ihi/intervention/050/02,http://dati.isprambiente.it/id/place/61038,SISTEMAZIONE DISSESTO IDROGEOLOGICO,129114.00,http://dati.isprambiente.it/id/ihi/agreement/050/02,DM 04/12/2002 (DT/2002/0282 - 2° stralcio),2002-12-04,Frana,Gallo Matese,campania,caserta,41.4783704142478,14.2219119180842
http://dati.isprambiente.it/id/ihi/intervention/015/08,http://dati.isprambiente.it/id/place/68046,Consolidamento del dissesto mediante muri tirantati  su pali e drenaggi superficiali - 1° lotto,500000.00,http://dati.isprambiente.it/id/ihi/agreement/015/08,DM 26/11/2007 (DEC/DDS/2007/1081 - 2°P. Strat.),2007-11-26,Frana,Villa Celiera,abruzzo,pescara,42.3879964073811,13.8457605765096
http://dati.isprambiente.it/id/ihi/intervention/14ir111/g1,http://dati.isprambiente.it/id/place/70050,Sistemazione dissesto idrogeologico in località Stingeto,200000.00,http://dati.isprambiente.it/id/ihi/agreement/14ir111/g1,DPCM 02/12/2019 Piano op. dissesto 2019,2019-12-02,Frana,Palata,molise,campobasso,41.8884344423633,14.7926406826579
http://dati.isprambiente.it/id/ihi/intervention/18ir357/g1,http://dati.isprambiente.it/id/place/80074,Interventi di consolidamento del centro abitato in aree oggetto di dissesto idrogeologico,100233.00,http://dati.isprambiente.it/id/ihi/agreement/18ir357/g1,Fondo_prog_Calabria_I_DD_265_del_28/06/2019,2019-06-28,Frana,San Luca,calabria,reggio-di-calabria,38.152786774499,16.007485586208
http://dati.isprambiente.it/id/ihi/intervention/15ir084/g1,http://dati.isprambiente.it/id/place/64005,manutenzione straordinaria e ripristino sezione deflussotratto del Vallone Masciano loc.“Montarozzo,70000.00,http://dati.isprambiente.it/id/ihi/agreement/15ir084/g1,Del CIPE 35 Piano Nazionale 24/07/2019,2019-07-24,Alluvione,Ariano Irpino,campania,avellino,41.1748608756558,15.106659624632
http://dati.isprambiente.it/id/ihi/intervention/654/99,http://dati.isprambiente.it/id/place/94031,"Disgaggio massi, messa in opera di tiranti attivi e passivi.",157596.82,http://dati.isprambiente.it/id/ihi/agreement/654/99,DPCM 28/01/2004 (f),2004-01-28,Frana,Pesche,molise,isernia,41.6134902985704,14.2901445183675
http://dati.isprambiente.it/id/ihi/intervention/dait@19_0022/xm,http://dati.isprambiente.it/id/place/102021,"MESSA IN SICUREZZA DELLA BRETELLA ALLA SS.18, VIA NICOLA LOMBARDI - VIA UGO LA MALFA - VIA MORABITO, IN MILETO -VV",600000.00,http://dati.isprambiente.it/id/ihi/agreement/dait@19_0022/xm,Decreto_Min_int_DAIT_30_12_2019,2019-12-30,Non definito,Mileto,calabria,vibo-valentia,38.5859656370465,16.1128318577647
http://dati.isprambiente.it/id/ihi/intervention/683/99,http://dati.isprambiente.it/id/place/82064,Lavori di realizzazione del cunettone pedemontano o canale di gronda. 1° stralcio,1032913.80,http://dati.isprambiente.it/id/ihi/agreement/683/99,DPCM 28/01/2004 (a),2004-01-28,Alluvione,San Giuseppe Jato,sicilia,palermo,37.9543393340319,13.1474242169783
http://dati.isprambiente.it/id/ihi/intervention/058/02,http://dati.isprambiente.it/id/place/63086,SISTEMAZIONE ZONA INTERESSATA DA CROLLO IN CALCARI,1080000.00,http://dati.isprambiente.it/id/ihi/agreement/058/02,DM 04/12/2002 (DT/2002/0282 - 2° stralcio),2002-12-04,Frana,Vico Equense,campania,napoli,40.6517510462002,14.4532429085978
http://dati.isprambiente.it/id/ihi/intervention/346/02,http://dati.isprambiente.it/id/place/8005,Intervento di sistemazione aree in frana.,90000.00,http://dati.isprambiente.it/id/ihi/agreement/346/02,DM 18/05/2004 (DS/2004/00164 - 9° stralcio),2004-05-18,Frana,Aurigo,liguria,imperia,43.991973148395,7.91426955681584
http://dati.isprambiente.it/id/ihi/intervention/363/02,http://dati.isprambiente.it/id/place/10004,Intervento di sistemazione area frana.,90000.00,http://dati.isprambiente.it/id/ihi/agreement/363/02,DM 18/05/2004 (DS/2004/00164 - 9° stralcio),2004-05-18,Frana,Bogliasco,liguria,genova,44.3863059259503,9.076587158785
http://dati.isprambiente.it/id/ihi/intervention/338/02,http://dati.isprambiente.it/id/place/43012,"Erosioni spondali e di alveo: risanamento idrogeologico con briglie, risagomature e drenaggi.",1000000.00,http://dati.isprambiente.it/id/ihi/agreement/338/02,DM 18/05/2004 (DS/2004/00164 - 9° stralcio),2004-05-18,Alluvione,Cingoli,marche,macerata,43.3817832801105,13.2290956210568
http://dati.isprambiente.it/id/ihi/intervention/204/08,http://dati.isprambiente.it/id/place/70078,"Programma per la sistemazione idraulica del tratto del F. Biferno compreso tra la diga di P.te Liscione e la foce, del Fiume Volturno e T. Rava",15000000.00,http://dati.isprambiente.it/id/ihi/agreement/204/08,DM 26/11/2007 (DEC/DDS/2007/1081 - 2°P. Strat.),2007-11-26,Alluvione,Termoli,molise,campobasso,41.994998258258,14.9243223067772
http://dati.isprambiente.it/id/ihi/intervention/13ir335/g1,http://dati.isprambiente.it/id/place/66063,"SEGNALAZIONE DISSESTO FRAZIONE VILLA SANTA MARIA, COMUNE DI ORTONA DEI MARSI (AQ)",139842.47,http://dati.isprambiente.it/id/ihi/agreement/13ir335/g1,Fondo_prog_Abruzzo_II_DD_344_del_11/09/2019,2019-09-11,Frana,Ortona dei Marsi,abruzzo,laquila,42.0011144993078,13.7291072403697
http://dati.isprambiente.it/id/ihi/intervention/ud020b/10,http://dati.isprambiente.it/id/place/30108,Opere di sistemazione del versante franoso a monte della frazione di Tercimonte,120000.00,http://dati.isprambiente.it/id/ihi/agreement/ud020b/10,AP Friuli Venezia Giulia 31/01/2011,2011-01-31,Frana,Savogna,friuli-venezia-giulia,udine,46.1837784557579,13.5456802953944
http://dati.isprambiente.it/id/ihi/intervention/135/02,http://dati.isprambiente.it/id/place/42010,adeguamento alveo,774685.35,http://dati.isprambiente.it/id/ihi/agreement/135/02,DM 04/12/2002 (DT/2002/0281 - 3° stralcio),2002-12-04,Alluvione,Castelfidardo,marche,ancona,43.4683346924974,13.5675878792662
http://dati.isprambiente.it/id/ihi/intervention/128/08,http://dati.isprambiente.it/id/place/59021,"Disgaggio, reti metalliche, consolidamento con iniezioni, drenaggi superficiali e profondi",801800.00,http://dati.isprambiente.it/id/ihi/agreement/128/08,DM 26/11/2007 (DEC/DDS/2007/1081 - 2°P. Strat.),2007-11-26,Frana,Roccagorga,lazio,latina,41.5245517373372,13.1324759680325
http://dati.isprambiente.it/id/ihi/intervention/dait@21_2531/xm,http://dati.isprambiente.it/id/place/87038,OPERE DI CONSOLIDAMENTO E DI PROTEZIONE DAL DISSESTO IDROGEOLOGICO DEL COSTONE COMPRESO TRA IL CENTRO STORICO DEL COMUNE DI RANDAZZO E L  ALVEO DEL FIUME ALCANTARA NEL TRATTO TRA LA S.S. 116 E LA VIA ROMA.*ZONA COMPRESA TRA LA VIA ROMA E LA S.S. 116*LAVO,1980000.00,http://dati.isprambiente.it/id/ihi/agreement/dait@21_2531/xm,Decreto_Min_int_DAIT_23.02.2021,2021-02-23,Frana,Randazzo,sicilia,catania,37.8777457019225,14.9360579414267
http://dati.isprambiente.it/id/ihi/intervention/dait@21_1483/xm,http://dati.isprambiente.it/id/place/11018,"LOCALITA COSTA GUADAMONTI*LOCALITA COSTA GUADAMONTI*MESSA IN SICUREZZA DI VERSANTE COLLINARE A RISCHIO IDROGEOLOGICO IN ROCCIA, FRANE CHE COINVOLGONO OPERE PUBBLICHE (VIABILITA  , SENTIERISTICA, ACQUEDOTTO E PRESE D  ACQUA).",890000.00,http://dati.isprambiente.it/id/ihi/agreement/dait@21_1483/xm,Decreto_Min_int_DAIT_23.02.2021,2021-02-23,Frana,Maissana,liguria,la-spezia,44.3353175328137,9.52371098322266
http://dati.isprambiente.it/id/ihi/intervention/158/02,http://dati.isprambiente.it/id/place/23091,Opere di riduzione della portata di piena,2324056.05,http://dati.isprambiente.it/id/ihi/agreement/158/02,DM 23/12/2002 (DT/2002/0297 - 4° stralcio),2002-12-23,Alluvione,Verona,veneto,verona,45.4486970034073,11.002202212168
http://dati.isprambiente.it/id/ihi/intervention/615/99,http://dati.isprambiente.it/id/place/111103,CANALE DI GUARDIA,774685.35,http://dati.isprambiente.it/id/ihi/agreement/615/99,DPCM 28/07/2000 (DSTN/2/15380),2000-07-28,Misto,missing,missing,missing,missing,missing
http://dati.isprambiente.it/id/ihi/intervention/dait@21_1902/xm,http://dati.isprambiente.it/id/place/70032,MESSA IN SICUREZZA DEL DISSESTO IDROGEOLOGICO IN LOCALITA   SANTO IANNI (CLASSE DI RISCHIO DI FRANA ELEVATO - R3)*SANTO IANNI*INTERVENTI DI MITIGAZIONE DEL RISCHIO IDROGEOLOGICO,348000.00,http://dati.isprambiente.it/id/ihi/agreement/dait@21_1902/xm,Decreto_Min_int_DAIT_23.02.2021,2021-02-23,Frana,Limosano,molise,campobasso,41.6758125407327,14.6242079833428
http://dati.isprambiente.it/id/ihi/intervention/dait@21_0985/xm,http://dati.isprambiente.it/id/place/65086,MITIGAZIONE RISCHIO IDROGEOLOGICO COSTONE ROCCIOSO SOVRASTANTE IL CENTRO ABITATO DI OTTATI - III? STRALCIO FUNZIONALE*LOCALITA   SAN DONATO - COSTONE ROCCIOSO - LOCALITA   CAMPO SPORTIVO*OPERE DI INGEGNERIA NATURALISTICA - INTERVENTI PUNTUALI SU SENTIERI,997670.00,http://dati.isprambiente.it/id/ihi/agreement/dait@21_0985/xm,Decreto_Min_int_DAIT_23.02.2021,2021-02-23,Frana,Ottati,campania,salerno,40.490412722478,15.3060509409072
http://dati.isprambiente.it/id/ihi/intervention/281/09,http://dati.isprambiente.it/id/place/43039,Intervento di messa in  sicurezza di V.le della Vittoria e zona Campetti,719000.00,http://dati.isprambiente.it/id/ihi/agreement/281/09,DM 10/11/2008 (DDS/DEC/2008/0855 - Ann. 2008),2008-11-10,Frana,Pioraco,marche,macerata,43.1842434161649,12.9724739258644
http://dati.isprambiente.it/id/ihi/intervention/fe048b/10,http://dati.isprambiente.it/id/place/38008,"Interventi di messa in sicurezza  della costa ""Progetto unitario di ripascimento"". (ID reg.#4R9B001-parte#) (nel decreto comuni VARI) - Ripascimento di tratti di spiaggia in erosione e interessati da subsidenza.",0.00,http://dati.isprambiente.it/id/ihi/agreement/fe048b/10,AP Emilia Romagna 03/11/2010,2010-11-03,Costiero,Ferrara,emilia-romagna,ferrara,44.8228610600696,11.6492201217974
http://dati.isprambiente.it/id/ihi/intervention/018/08,http://dati.isprambiente.it/id/place/76011,pali e gabbionate,100000.00,http://dati.isprambiente.it/id/ihi/agreement/018/08,DM 26/11/2007 (DEC/DDS/2007/1081 - 2°P. Strat.),2007-11-26,Frana,Barile,basilicata,potenza,40.9516852738026,15.6975232942623
http://dati.isprambiente.it/id/ihi/intervention/21ir034/g1,http://dati.isprambiente.it/id/place/21040,Rio Vallarsa: costruzione di una briglia di trattenuta a monte della casa Emmaus,1200000.00,http://dati.isprambiente.it/id/ihi/agreement/21ir034/g1,DPCM 02/12/2019 Piano op. dissesto 2019,2019-12-02,Alluvione,Laives,trentino-alto-adige,bolzano,46.4384572460996,11.34511229651
http://dati.isprambiente.it/id/ihi/intervention/dait@21_2518/xm,http://dati.isprambiente.it/id/place/85015,VERSANTE NORD-EST DEL CENTRO ABITATO*VIA TULLIO VINAY*MESSA IN SICUREZZA DEL VERSANTE NORD-EST DEL C.A.,970000.00,http://dati.isprambiente.it/id/ihi/agreement/dait@21_2518/xm,Decreto_Min_int_DAIT_23.02.2021,2021-02-23,Frana,Riesi,sicilia,caltanissetta,37.2935707721116,14.0897649119513
http://dati.isprambiente.it/id/ihi/intervention/cb002a/10,http://dati.isprambiente.it/id/place/70002,"Sistemazione dei dissesti idrogeologici interessanti la strada comunale nelle loc. Coscia di Ponte Veticozze e S. Cecilia. (Formazione di drenaggi superficiali e profondi, di gabbionate e/o muri di sostegno e/o paratia di pali.)",250000.00,http://dati.isprambiente.it/id/ihi/agreement/cb002a/10,AP Molise 02/05/2011,2011-05-02,Frana,Baranello,molise,campobasso,41.5251897289917,14.5475207988076
http://dati.isprambiente.it/id/ihi/intervention/438/09,http://dati.isprambiente.it/id/place/88008,OPERE DIFESA COSTIERA,1000000.00,http://dati.isprambiente.it/id/ihi/agreement/438/09,DM 27/11/2008 (DDS/DEC/2008/0913),2008-11-27,Costiero,Pozzallo,sicilia,ragusa,36.7412178761371,14.8773365576297
http://dati.isprambiente.it/id/ihi/intervention/717/99,http://dati.isprambiente.it/id/place/99020,CONSOLIDAMENTO CENTRO STORICO (II STRALCIO),542279.74,http://dati.isprambiente.it/id/ihi/agreement/717/99,DPCM 27/12/2002 (SDT/7120),2002-12-27,Frana,Verucchio,emilia-romagna,rimini,43.9927439494671,12.4302494361974
http://dati.isprambiente.it/id/ihi/intervention/043/99,http://dati.isprambiente.it/id/place/17189,DIFESA PASSIVA PER CROLLI A PROTEZIONE DELL´ABITATO E ASSE STRADALE,1032913.80,http://dati.isprambiente.it/id/ihi/agreement/043/99,DPCM 21/12/1999 (DSTN/2/27773),1999-12-21,Frana,Tremosine,lombardia,brescia,45.7762155979561,10.7664420386089
http://dati.isprambiente.it/id/ihi/intervention/19ir886/g1,http://dati.isprambiente.it/id/place/89010,lavori di consolidamento per la mitigazione del rischio idrogeologico a protezione del centro abitat,2380000.00,http://dati.isprambiente.it/id/ihi/agreement/19ir886/g1,AP-int Sicilia V 02/11/2020,2020-11-02,Frana,Francofonte,sicilia,siracusa,37.2308112586251,14.8626600888749
http://dati.isprambiente.it/id/ihi/intervention/dait@21_1379/xm,http://dati.isprambiente.it/id/place/56015,VIA CISTERNA LOCALITA MADONNA DELLE GRAZIE*VIA CISTERNA*COMPLETAMENTO DEI LAVORI PER LA MESSA IN SICUREZZA DEL COSTONE TUFACEO LUNGO VIA CISTERNA,500000.00,http://dati.isprambiente.it/id/ihi/agreement/dait@21_1379/xm,Decreto_Min_int_DAIT_23.02.2021,2021-02-23,Frana,Caprarola,lazio,viterbo,42.3282689101366,12.2142254812449
http://dati.isprambiente.it/id/ihi/intervention/dait@21_2471/xm,http://dati.isprambiente.it/id/place/75087,AREE CENTRALI DELLA MARINA DI CASALABATE*CASALABATE*INTERVENTO DI DIFESA COSTIERA E RIQUALIFICAZIONE DEL LITORALE NORD,935000.00,http://dati.isprambiente.it/id/ihi/agreement/dait@21_2471/xm,Decreto_Min_int_DAIT_23.02.2021,2021-02-23,Costiero,Trepuzzi,puglia,lecce,40.4180059218389,18.0695335261238
http://dati.isprambiente.it/id/ihi/intervention/dait@21_1185/xm,http://dati.isprambiente.it/id/place/59001,MESSA IN SICUREZZA TERRITORIO URBANO LOCALITA   CAMPOVERDE VIA ROSELLI DA RISCHIO IDROGEOLOGICO CON INTERVENTI DI REGIMENTAZIONE ACQUE SORGIVE*VIA ROSELLI*MESSA IN SICUREZZA TERRITORIO URBANO LOCALITA   CAMPOVERDE VIA ROSELLI DA RISCHIO IDROGEOLOGICO CON,999152.00,http://dati.isprambiente.it/id/ihi/agreement/dait@21_1185/xm,Decreto_Min_int_DAIT_23.02.2021,2021-02-23,Alluvione,Aprilia,lazio,latina,41.5500341266068,12.7113496277435
http://dati.isprambiente.it/id/ihi/intervention/dait@21_0123/xm,http://dati.isprambiente.it/id/place/66083,"MESSA IN SICUREZZA DEL TERRITORIO COMUNALE*CENTRO ABITATO*MESSA IN SICUREZZA DEL TERRITORIO COMUNALE AI FINI DELLA RIDUZIONE DEL RISCHIO IDROGEOLOGICO IN LOCALITA   MADONNA DELLE GRAZIE, VIA DEL CASTELLO E ZONA SPORTIVA",999500.00,http://dati.isprambiente.it/id/ihi/agreement/dait@21_0123/xm,Decreto_Min_int_DAIT_23.02.2021,2021-02-23,Non definito,Rocca Pia,abruzzo,laquila,41.9053306011418,13.9871584072836
http://dati.isprambiente.it/id/ihi/intervention/si026a/10,http://dati.isprambiente.it/id/place/52028,Consolidamento dissesto franoso Porta San Giovanni nel capoluogo (Zona I),620000.00,http://dati.isprambiente.it/id/ihi/agreement/si026a/10,AP Toscana 03/11/2010,2010-11-03,Frana,San Gimignano,toscana,siena,43.4747306396818,11.0317645498365
http://dati.isprambiente.it/id/ihi/intervention/pz031c/10,http://dati.isprambiente.it/id/place/76040,Consolidamento zona N.O. Latronico centro - Fabbricato pericolante via Montegrappa; Intervento di demolizione del fabbricato esistente e consolidamento del pendio di monte mediante drenaggi e opere strutturali,500000.00,http://dati.isprambiente.it/id/ihi/agreement/pz031c/10,AP Basilicata 14/12/2010,2010-12-14,Frana,Latronico,basilicata,potenza,40.0839198786863,16.0121629604006
http://dati.isprambiente.it/id/ihi/intervention/178/09,http://dati.isprambiente.it/id/place/78128,"Opere in calcestruzzo, stabilizzazione pendii, ripristino sedi stradali, captazione e convogliamento acque",400000.00,http://dati.isprambiente.it/id/ihi/agreement/178/09,DM 10/11/2008 (DDS/DEC/2008/0855 - Ann. 2008),2008-11-10,Frana,San Sosti,calabria,cosenza,39.667375065715,16.0376013037318
http://dati.isprambiente.it/id/ihi/intervention/377/09,http://dati.isprambiente.it/id/place/25014,Mitigazione del rischio idrogeologico a valle dell´abitato di Soppause,98000.00,http://dati.isprambiente.it/id/ihi/agreement/377/09,DM 10/11/2008 (DDS/DEC/2008/0855 - Ann. 2008),2008-11-10,Non definito,Colle Santa Lucia,veneto,belluno,46.4675108738827,12.0196997282826
http://dati.isprambiente.it/id/ihi/intervention/264/99,http://dati.isprambiente.it/id/place/53019,CONSOLIDAMENTO PARETE,111038.23,http://dati.isprambiente.it/id/ihi/agreement/264/99,DPCM 21/12/1999 (DSTN/2/27781),1999-12-21,Frana,Pitigliano,toscana,grosseto,42.6133175283086,11.6611649012937
http://dati.isprambiente.it/id/ihi/intervention/196/06,http://dati.isprambiente.it/id/place/12020,"Pulitura dell´alveo, sistemazione delle sponde e realizzazione di briglie e vasche di decantazione.",500000.00,http://dati.isprambiente.it/id/ihi/agreement/196/06,DM 11/07/2005 (DS/2005/321 - 11° stralcio),2005-07-11,Alluvione,Brezzo di Bedero,lombardia,varese,45.9867988680222,8.69867186684883
http://dati.isprambiente.it/id/ihi/intervention/420/06,http://dati.isprambiente.it/id/place/56047,Sistemazione della vecchia strada Cassia,578000.00,http://dati.isprambiente.it/id/ihi/agreement/420/06,DM 11/07/2005 (DS/2005/321 - 11° stralcio),2005-07-11,Non definito,San Lorenzo Nuovo,lazio,viterbo,42.6691311236459,11.9175714364739
http://dati.isprambiente.it/id/ihi/intervention/dait@21_2118/xm,http://dati.isprambiente.it/id/place/5014,LAVORI DI CONSOLIDAMENTO DEL MURO SOTTOSTANTE VIA FRANCESCO ANTONIONE E SOPRASTANTE PIAZZA DEL PALIO INTERESSATO DA DISSESTO IDROGEOLOGICO NEL CONCENTRICO DELL  ABITATO.*VIA FRANCESCO ANTONIONE*MESSA IN SICUREZZA DEL TERRITORIO A RISCHIO IDROGEOLOGICO ME,602000.00,http://dati.isprambiente.it/id/ihi/agreement/dait@21_2118/xm,Decreto_Min_int_DAIT_23.02.2021,2021-02-23,Non definito,Calliano,piemonte,asti,45.0079445621599,8.23003334032916
http://dati.isprambiente.it/id/ihi/intervention/03ir445/g1,http://dati.isprambiente.it/id/place/16144,Completamento sistemazione idraulica fiume Serio a monte del ponte di Via Acqua dei Buoi,250000.00,http://dati.isprambiente.it/id/ihi/agreement/03ir445/g1,AP-int Lombardia IV 08/10/2020,2020-10-08,Alluvione,Nembro,lombardia,bergamo,45.7520648624663,9.75672109939052
http://dati.isprambiente.it/id/ihi/intervention/061/08,http://dati.isprambiente.it/id/place/62008,"Programma di interventi di miglioramento dell´ambiente urbano e del bacino del fiume Calore attraverso azioni integrate di risanamento del suolo, dell´assetto idrogeologico e di riqualificazione dei fiumi",1000000.00,http://dati.isprambiente.it/id/ihi/agreement/061/08,DM 26/11/2007 (DEC/DDS/2007/1081 - 2°P. Strat.),2007-11-26,Alluvione,Benevento,campania,benevento,41.1538876864946,14.789354752715
http://dati.isprambiente.it/id/ihi/intervention/dait@21_2164/xm,http://dati.isprambiente.it/id/place/96075,MESSA IN SICUREZZA DEL TERRITORIO A RISCHIO IDROGEOLOGICO TRA IL CAPOLUOGO E LA FR. PIANE A PROTEZIONE DELL  ABITATO*VERSANTI DAL CAPOLUOGO ALLA FR. PIANE*SISTEMAZIONE DISSESTI IDROGEOLOGICI LUNGO IL VERSANTE CHE COLLEGA IL CAPOLUOGO ALLA FRAZIONE PIANE,940000.00,http://dati.isprambiente.it/id/ihi/agreement/dait@21_2164/xm,Decreto_Min_int_DAIT_23.02.2021,2021-02-23,Frana,Veglio,piemonte,biella,45.6460958649896,8.10848627681452
http://dati.isprambiente.it/id/ihi/intervention/280/99,http://dati.isprambiente.it/id/place/50018,SISTEMAZIONE IDRAULICA,516456.90,http://dati.isprambiente.it/id/ihi/agreement/280/99,DPCM 21/12/1999 (DSTN/2/27781),1999-12-21,Alluvione,Lorenzana,toscana,pisa,43.5312140282288,10.5325703482594
http://dati.isprambiente.it/id/ihi/intervention/fg023a/10,http://dati.isprambiente.it/id/place/71039,Completamento delle opere di consolidamento e sistemazione idraulica del centro urbano,2900000.00,http://dati.isprambiente.it/id/ihi/agreement/fg023a/10,AP Puglia 24/11/2010,2010-11-24,Frana,Pietramontecorvino,puglia,foggia,41.5408454956609,15.1120486175761
http://dati.isprambiente.it/id/ihi/intervention/dait@21_1505/xm,http://dati.isprambiente.it/id/place/9018,FIUME BORMIDA*CENTRO URBANO*MESSA IN SICUREZZA DEL TERRITORIO A RISCHIO IDROGEOLOGICO,985000.00,http://dati.isprambiente.it/id/ihi/agreement/dait@21_1505/xm,Decreto_Min_int_DAIT_23.02.2021,2021-02-23,Alluvione,Carcare,liguria,savona,44.3510609831981,8.29086562072109
http://dati.isprambiente.it/id/ihi/intervention/155/06,http://dati.isprambiente.it/id/place/76090,"disgaggio, chiodatura e drenaggi superficiali",1000000.00,http://dati.isprambiente.it/id/ihi/agreement/155/06,DM 22/12/2004 (DS/2004/00626 - 10° stralcio),2004-12-22,Frana,Tolve,basilicata,potenza,40.7111893455407,16.0450275599538
http://dati.isprambiente.it/id/ihi/intervention/266/02,http://dati.isprambiente.it/id/place/34021,DELOCALIZZAZIONE INSEDIAMENTI IN AREE A RISCHIO DI ESONDAZIONE - (COMPLETAMENTO),2171780.16,http://dati.isprambiente.it/id/ihi/agreement/266/02,DM 23/12/2002 (DT/2002/0304 - 6° stralcio),2002-12-23,Alluvione,Mezzani,emilia-romagna,parma,44.9256357049726,10.4457845312345
http://dati.isprambiente.it/id/ihi/intervention/pv118a/10,http://dati.isprambiente.it/id/place/18029,"Ripristino sezione di deflusso mediante svasamento  e consolidamento sponde con difese spondali torrente Versa (Opere di regimazione idraulica). comuni di: PORTALBERA, STRADELLA, MONTÙ B., CANNETO PAVESE, MONTESCANO E SANTA MARIA DELLA VERSA",1000000.00,http://dati.isprambiente.it/id/ihi/agreement/pv118a/10,AP Lombardia 04/11/2010,2010-11-04,Alluvione,Canneto Pavese,lombardia,pavia,45.0447007437971,9.28520114904359
http://dati.isprambiente.it/id/ihi/intervention/369/02,http://dati.isprambiente.it/id/place/46005,"Interventi vari lungo la via Gombitelli,sistemazione di frane,gabbioni e palificate di sostegno,reti paramassi.",1363637.00,http://dati.isprambiente.it/id/ihi/agreement/369/02,DM 18/05/2004 (DS/2004/00164 - 9° stralcio),2004-05-18,Frana,Camaiore,toscana,lucca,43.9398729996527,10.3124684032327
http://dati.isprambiente.it/id/ihi/intervention/420/99,http://dati.isprambiente.it/id/place/58016,"CONSOLIDAMENTO DEI DISSESTI IN LOCALITÀ GIGLIO, A NORD DELL´ABITATO, E LUNGO LA SP CANALE MONTERANO, A S",826331.04,http://dati.isprambiente.it/id/ihi/agreement/420/99,DPCM 21/12/1999 (DSTN/2/27774),1999-12-21,Frana,Canale Monterano,lazio,roma,42.1346720320885,12.0763347808059
http://dati.isprambiente.it/id/ihi/intervention/446/06,http://dati.isprambiente.it/id/place/53026,"Consolidamento delle pareti tufacee, regimazione idraulica",900000.00,http://dati.isprambiente.it/id/ihi/agreement/446/06,DM 11/07/2005 (DS/2005/321 - 11° stralcio),2005-07-11,Frana,Sorano,toscana,grosseto,42.7006122642096,11.7117763829177
http://dati.isprambiente.it/id/ihi/intervention/01ir369/g1,http://dati.isprambiente.it/id/place/6038,LAVORI DI MESSA IN SICUREZZA VIABILITA' E ABITATO LOCALITA' CASTELLO,400000.00,http://dati.isprambiente.it/id/ihi/agreement/01ir369/g1,DD 357/CLE 18/12/2015 - Piemonte,2015-12-18,Frana,Casaleggio Boiro,piemonte,alessandria,44.6125170834156,8.74095854779284
http://dati.isprambiente.it/id/ihi/intervention/444/02,http://dati.isprambiente.it/id/place/78122,Intervento di consolidamentoe risanamento ambientale.,981000.00,http://dati.isprambiente.it/id/ihi/agreement/444/02,DM 18/05/2004 (DS/2004/00164 - 9° stralcio),2004-05-18,Frana,San Lucido,calabria,cosenza,39.3069736208639,16.0824111421273
http://dati.isprambiente.it/id/ihi/intervention/159/99,http://dati.isprambiente.it/id/place/11015,PULIZIA E ADEGUAMENTO DELLE SEZIONI TRATTO TERMINALE T. FOSSAMASTRA,619748.28,http://dati.isprambiente.it/id/ihi/agreement/159/99,DPCM 21/12/1999 (DSTN/2/27775),1999-12-21,Alluvione,La Spezia,liguria,la-spezia,44.1012529035077,9.795706116524
http://dati.isprambiente.it/id/ihi/intervention/dait@21_0113/xm,http://dati.isprambiente.it/id/place/66066,LAVORI DI MITIGAZIONE DEL DISSESTO IDROGEOLOGICO MEDIANTE RIPRISTINO E ADEGUAMENTO CANALE DI ADDUZIONE ACQUE IRRIGUE A TERGO DEL VERSANTE SUD DEL MORRONE*VIA PROVINCIALE*INTERVENTO DI MESSA IN SICUREZZA DEL TERRITORIO A RISCHIO IDROGEOLOGICO,1000000.00,http://dati.isprambiente.it/id/ihi/agreement/dait@21_0113/xm,Decreto_Min_int_DAIT_23.02.2021,2021-02-23,Alluvione,Pacentro,abruzzo,laquila,42.0554240845814,13.9912124303069
http://dati.isprambiente.it/id/ihi/intervention/15ir920/g1,http://dati.isprambiente.it/id/place/62007,Lavori di sistemazione idrogeologica e consolidamento versante a valle del campo sportivo,106879.40,http://dati.isprambiente.it/id/ihi/agreement/15ir920/g1,Fondo_Prog_Campania_09/08/2018,2018-08-09,Frana,Baselice,campania,benevento,41.3913057981409,14.9401925327228
http://dati.isprambiente.it/id/ihi/intervention/dait@21_2247/xm,http://dati.isprambiente.it/id/place/4200,LAVORI DI RIPRISTINO DEGLI ARGINI DEL TORRENTE CEVETTA IN CORRISPONDENZA DELLA STRADA DI ACCESSO ALLA FRAZIONE BRIC DI ROCCA DI LEPRE*VIA ROCCA DI LEPRE*LAVORI DI SISTEMAZIONE AMBIENTALE,150000.00,http://dati.isprambiente.it/id/ihi/agreement/dait@21_2247/xm,Decreto_Min_int_DAIT_23.02.2021,2021-02-23,Alluvione,Sale San Giovanni,piemonte,cuneo,44.4061418407878,8.07575685771246
http://dati.isprambiente.it/id/ihi/intervention/dait@19_0153/xm,http://dati.isprambiente.it/id/place/59016,MESSA IN SICUREZZA DEL TERRITORIO DOVUTA A DISSESTO IDROGEOLOGICO DI VIA GIULIO CESARE E VIA DELLE SVOLTE,568216.00,http://dati.isprambiente.it/id/ihi/agreement/dait@19_0153/xm,Decreto_Min_int_DAIT_30_12_2019,2019-12-30,Non definito,Norma,lazio,latina,41.6024766464819,13.0008417816672
http://dati.isprambiente.it/id/ihi/intervention/dait@19_0452/xm,http://dati.isprambiente.it/id/place/8011,SISTEMAZIONE IDRAULICA DELL`ALVEO.,950000.00,http://dati.isprambiente.it/id/ihi/agreement/dait@19_0452/xm,Decreto_Min_int_DAIT_30_12_2019,2019-12-30,Alluvione,Camporosso,liguria,imperia,43.818492074506,7.61734666051558
http://dati.isprambiente.it/id/ihi/intervention/084/06,http://dati.isprambiente.it/id/place/60044,Reti e barriere paramassi,1238000.00,http://dati.isprambiente.it/id/ihi/agreement/084/06,DM 22/12/2004 (DS/2004/00626 - 10° stralcio),2004-12-22,Frana,Monte San Giovanni Campano,lazio,frosinone,41.6328626425566,13.5244348904752
http://dati.isprambiente.it/id/ihi/intervention/dait@21_0448/xm,http://dati.isprambiente.it/id/place/78083,TERRITORIO COMUNALE DI MORANO CALABRO*PIAZZA CROCE - VIA FICARAZZI*INTERVENTI URGENTI PER LA RIDUZIONE DEL RISCHIO IDROGEOLOGICO A PROTEZIOEN DEL CENTRO ABITATO  - ZONA NORD,999000.00,http://dati.isprambiente.it/id/ihi/agreement/dait@21_0448/xm,Decreto_Min_int_DAIT_23.02.2021,2021-02-23,Non definito,Morano Calabro,calabria,cosenza,39.8616522808386,16.1435847254415
http://dati.isprambiente.it/id/ihi/intervention/dait@21_0780/xm,http://dati.isprambiente.it/id/place/64115,STRADE COMUNALI VIA SAN GIUSEPPE E VIA APPIA*LOC.SAN GIUSEPPE E VIA APPIA*MITIGAZIONE DEL DISSESTO IDROGEOLOGICO LUNGO LE STRADE VIA SAN GIUSEPPE E VIA APPIA,999378.00,http://dati.isprambiente.it/id/ihi/agreement/dait@21_0780/xm,Decreto_Min_int_DAIT_23.02.2021,2021-02-23,Non definito,Vallesaccarda,campania,avellino,41.0801631040255,15.2602953496774
http://dati.isprambiente.it/id/ihi/intervention/pu061b/10,http://dati.isprambiente.it/id/place/41045,Lavori di messa in sicurezza del Fosso del Razzo (Tabella 2 - cofinanziamento territorio Regione Marche),0.00,http://dati.isprambiente.it/id/ihi/agreement/pu061b/10,AP Marche 25/11/2010,2010-11-25,Alluvione,Petriano,marche,pesaro-e-urbino,43.7738111867072,12.7316299867207
http://dati.isprambiente.it/id/ihi/intervention/12ir015/g9,http://dati.isprambiente.it/id/place/58100,Intervento di consolidamento della frana in loc. Vallerano - Cerepelle- Completamento.,298940.00,http://dati.isprambiente.it/id/ihi/agreement/12ir015/g9,Del CIPE 35 Piano Nazionale 24/07/2019,2019-07-24,Frana,San Vito Romano,lazio,roma,41.8801521029811,12.9794142059076
http://dati.isprambiente.it/id/ihi/intervention/so142a/10,http://dati.isprambiente.it/id/place/14063,Sistemazione torrente Malasca (Opere di regimazione idraulica),400000.00,http://dati.isprambiente.it/id/ihi/agreement/so142a/10,AP Lombardia 04/11/2010,2010-11-04,Alluvione,Talamona,lombardia,sondrio,46.1234129778192,9.62905088559052
http://dati.isprambiente.it/id/ihi/intervention/312/02,http://dati.isprambiente.it/id/place/4215,Completamento difesa territorio comunale torr. Maira e Mallea.,5000000.00,http://dati.isprambiente.it/id/ihi/agreement/312/02,DM 29/04/2003 (DT/2003/00190 - 7° stralcio),2003-04-29,Misto,Savigliano,piemonte,cuneo,44.641719303043,7.67447982603773
http://dati.isprambiente.it/id/ihi/intervention/dait@21_1134/xm,http://dati.isprambiente.it/id/place/60038,MESSA IN SICUREZZA IDROGEOLOGICA DELLA SCARPATA STRADALE DI VIA SAN GERARDO*VIA SAN GERARDO*MESSA IN SICUREZZA IDROGEOLOGICA DELLA SCARPATA STRADALE DI VIA SAN GERARDO,995000.00,http://dati.isprambiente.it/id/ihi/agreement/dait@21_1134/xm,Decreto_Min_int_DAIT_23.02.2021,2021-02-23,Frana,Frosinone,lazio,frosinone,41.631563915264,13.2960383256874
http://dati.isprambiente.it/id/ihi/intervention/01ir638/g1,http://dati.isprambiente.it/id/place/1306,Completamento opere di messa in sicurezza Rio Cassarot,2800000.00,http://dati.isprambiente.it/id/ihi/agreement/01ir638/g1,Del CIPE 35 Piano Nazionale 24/07/2019,2019-07-24,Alluvione,Villar Pellice,piemonte,torino,44.7527836372814,7.11345710731547
http://dati.isprambiente.it/id/ihi/intervention/14ir512/g1,http://dati.isprambiente.it/id/place/70081,Sistemazione dissesti idrogeologici nell’area Casalotti a ridosso del centro urbano - I Stralcio,500000.00,http://dati.isprambiente.it/id/ihi/agreement/14ir512/g1,DPCM 02/12/2019 Piano op. dissesto 2019,2019-12-02,Frana,Trivento,molise,campobasso,41.7803684539991,14.5726167386493
http://dati.isprambiente.it/id/ihi/intervention/031/06,http://dati.isprambiente.it/id/place/46004,"Cordolo su pali di grande diametro, interventi di ingegneria naturalistica",500000.00,http://dati.isprambiente.it/id/ihi/agreement/031/06,DM 22/12/2004 (DS/2004/00626 - 10° stralcio),2004-12-22,Frana,Borgo a Mozzano,toscana,lucca,43.9880408469556,10.5196223847696
http://dati.isprambiente.it/id/ihi/intervention/dait@21_1301/xm,http://dati.isprambiente.it/id/place/58048,VERSANTE NORD ? OVEST DEL TERRITORIO COMUNALE - FOSSO DI MONTE PORCARO*LOCALITA   MONTE PORCARO*MITIGAZIONE E RIDUZIONE DEL RISCHIO IDROGEOLOGICO NEL VERSANTE NORD ? OVEST DEL TERRITORIO COMUNALE,499459.75,http://dati.isprambiente.it/id/ihi/agreement/dait@21_1301/xm,Decreto_Min_int_DAIT_23.02.2021,2021-02-23,Frana,Jenne,lazio,roma,41.9018427322954,13.1733444461044
http://dati.isprambiente.it/id/ihi/intervention/dait@21_2075/xm,http://dati.isprambiente.it/id/place/6114,VERSANTE PARCO CASTELLO SU VIA ONETO*VIA ONETO*CONSOLIDAMENTO VERSANTE PARCO CASTELLO SU VIA ONETO,420000.00,http://dati.isprambiente.it/id/ihi/agreement/dait@21_2075/xm,Decreto_Min_int_DAIT_23.02.2021,2021-02-23,Frana,Novi Ligure,piemonte,alessandria,44.7651607090133,8.79519646053785
http://dati.isprambiente.it/id/ihi/intervention/dait@21_1563/xm,http://dati.isprambiente.it/id/place/16247,CONSOLIDAMENTO STRADE E REGIMAZIONE IDRAULICA IN LOCALITA GAZZO-LOTTO3*GAZZO*OPERE DI CONSOLIDAMENTO STRADE E REGIMAZIONE ACQUE,571415.00,http://dati.isprambiente.it/id/ihi/agreement/dait@21_1563/xm,Decreto_Min_int_DAIT_23.02.2021,2021-02-23,Alluvione,Costa Serina,lombardia,bergamo,45.8232064287073,9.75872668462353
http://dati.isprambiente.it/id/ihi/intervention/cn136a/10,http://dati.isprambiente.it/id/place/4142,OPERE DI MITIGAZIONE DEL RISCHIO IDROGEOLOGICO (OPERE DI CONSOLIDAMENTO ATTIVO),200000.00,http://dati.isprambiente.it/id/ihi/agreement/cn136a/10,AP Piemonte 17/11/2010,2010-11-17,Frana,Monticello d'Alba,piemonte,cuneo,44.7164309310868,7.92432701067679
http://dati.isprambiente.it/id/ihi/intervention/440/09,http://dati.isprambiente.it/id/place/88010,TUTELA FASCIA COSTIERA PUNTA BRACCETTO - PUNTA SEC,1000000.00,http://dati.isprambiente.it/id/ihi/agreement/440/09,DM 27/11/2008 (DDS/DEC/2008/0913),2008-11-27,Costiero,Santa Croce Camerina,sicilia,ragusa,36.8152233786749,14.5222203477574
http://dati.isprambiente.it/id/ihi/intervention/dait@21_0096/xm,http://dati.isprambiente.it/id/place/66026,MESSA IN SICUREZZA DEL CENTRO ABITATO IN ZONA RISCHIO IDROGEOLOGICO ELEVATO*CENTRO ABITATO*TRATTASI DI OPERE DI MESSA IN SICUREZZA DEL CENTRO ABITATO PER LA MITIGAZIONE DAL RISCHIO IDROGEOLOGICO,997000.00,http://dati.isprambiente.it/id/ihi/agreement/dait@21_0096/xm,Decreto_Min_int_DAIT_23.02.2021,2021-02-23,Non definito,Castel del Monte,abruzzo,laquila,42.3901247862578,13.7176185070639
http://dati.isprambiente.it/id/ihi/intervention/212/07,http://dati.isprambiente.it/id/place/4227,"Opere di drenaggio superficiale e profondo, sondaggi e carotaggi sul corpo di frana in loc. Bagnaschino lungo la S.P. n. 164. Primo intervento",170000.00,http://dati.isprambiente.it/id/ihi/agreement/212/07,DM 03/11/2006 (DDS/DEC/2006/0632 - 1°P. Strat.),2006-11-03,Frana,Torre Mondovì,piemonte,cuneo,44.3253275977804,7.90920529491416
http://dati.isprambiente.it/id/ihi/intervention/dait@21_2031/xm,http://dati.isprambiente.it/id/place/6029,COMPLETAMENTO MESSA IN SICUREZZA VERSANTE LOCALITA CASTELVECCHIO*LOCALITA CASTELVECCHIO*COMPLETAMENTO MESSA IN SICUREZZA VERSANTE LOCALITA CASTELVECCHIO,950000.00,http://dati.isprambiente.it/id/ihi/agreement/dait@21_2031/xm,Decreto_Min_int_DAIT_23.02.2021,2021-02-23,Frana,Capriata d'Orba,piemonte,alessandria,44.7290025274078,8.69431685325145
http://dati.isprambiente.it/id/ihi/intervention/024/06,http://dati.isprambiente.it/id/place/83005,Muro di contenimento su micropali per contrastare movimento franoso,400000.00,http://dati.isprambiente.it/id/ihi/agreement/024/06,DM 22/12/2004 (DS/2004/00626 - 10° stralcio),2004-12-22,Frana,Barcellona Pozzo di Gotto,sicilia,messina,38.132701964189,15.2275070510037
http://dati.isprambiente.it/id/ihi/intervention/dait@19_0181/xm,http://dati.isprambiente.it/id/place/60043,DIFESA SPONDALE CON RIPRISTINO DELLA SICUREZZA DEGLI ARGINI DEL FIUME FIBRENO NEL CENTRO ABITATO DI CARNELLO DAL PONTE DELLA S.P. CARNELLO ALLA VIA LUNGO FIBRENO,579860.00,http://dati.isprambiente.it/id/ihi/agreement/dait@19_0181/xm,Decreto_Min_int_DAIT_30_12_2019,2019-12-30,Alluvione,Isola del Liri,lazio,frosinone,41.6831123370973,13.5843786215448
http://dati.isprambiente.it/id/ihi/intervention/dait@21_2507/xm,http://dati.isprambiente.it/id/place/84031,AREE URBANE DI VIA TERRACINI*VIA TERRACINI E TRAVERSE*INTERVENTI DI MITIGAZIONE DEL RISCHIO IDROGEOLOGICO NELLE AREE DI VIA TERRACINI,900000.00,http://dati.isprambiente.it/id/ihi/agreement/dait@21_2507/xm,Decreto_Min_int_DAIT_23.02.2021,2021-02-23,Non definito,Ravanusa,sicilia,agrigento,37.249373245655,13.9854859456435
http://dati.isprambiente.it/id/ihi/intervention/dait@21_0913/xm,http://dati.isprambiente.it/id/place/63079,INTERVENTO DI MESSA IN SICUREZZA DI MITIGAZIONE DEL RISCHIO IDROGEOLOGICO CONNESSO ALL  EVENTO FRANOSO IN LOCALITA GAVETE DEL COMUNE DI SOMMA VESUVIANA (NA)*VIA LOCALITA GAVETE*INTERVENTO DI MESSA IN SICUREZZA DI MITIGAZIONE DEL RISCHIO IDROGEOLOGICO CON,967888.00,http://dati.isprambiente.it/id/ihi/agreement/dait@21_0913/xm,Decreto_Min_int_DAIT_23.02.2021,2021-02-23,Frana,Somma Vesuviana,campania,napoli,40.8736279138798,14.4441384218529
http://dati.isprambiente.it/id/ihi/intervention/15ir967/g1,http://dati.isprambiente.it/id/place/62021,Progetto Integrato di sistemazione idrogeologica del bacino del P.co Reg. Taburno-Camposauro nord-oc,649119.50,http://dati.isprambiente.it/id/ihi/agreement/15ir967/g1,Fondo_Prog_Campania_09/08/2018,2018-08-09,Alluvione,Cautano,campania,benevento,41.1506652866053,14.6160415007048
http://dati.isprambiente.it/id/ihi/intervention/dait@21_1817/xm,http://dati.isprambiente.it/id/place/43032,MESSA IN SICUREZZA PORZIONE DELLE MURA CASTELLANE*VIALE VITTORIA*MESSA IN SICUREZZA PORZIONE DELLE MURA CASTELLANE,150000.00,http://dati.isprambiente.it/id/ihi/agreement/dait@21_1817/xm,Decreto_Min_int_DAIT_23.02.2021,2021-02-23,Frana,Monte San Martino,marche,macerata,43.0328113159082,13.4454117139081
http://dati.isprambiente.it/id/ihi/intervention/dait@21_0508/xm,http://dati.isprambiente.it/id/place/78152,MESSA IN SICUREZZA DEL TERRITORIO - LOCALITA   CENTRO ABITATO E VIA SAN NICOLA - PRIMO STRALCIO FUNZIONALE*CENTRO ABITATO*REGIMAZIONE DELLE ACQUE E OPERE DI CONTENIMENTO DEI VERSANTI,990000.00,http://dati.isprambiente.it/id/ihi/agreement/dait@21_0508/xm,Decreto_Min_int_DAIT_23.02.2021,2021-02-23,Frana,Vaccarizzo Albanese,calabria,cosenza,39.5873977866348,16.4359420778601
http://dati.isprambiente.it/id/ihi/intervention/132/99,http://dati.isprambiente.it/id/place/24101,"RETE DI CONTENIMENTO, BARRIERA PARAMASSI.",361519.83,http://dati.isprambiente.it/id/ihi/agreement/132/99,DPCM 21/12/1999 (DSTN/2/27784),1999-12-21,Frana,Solagna,veneto,vicenza,45.8443482349526,11.7213013847587
http://dati.isprambiente.it/id/ihi/intervention/to168a/10,http://dati.isprambiente.it/id/place/1018,SISTEMAZIONI IDROGEOLOGICHE LOCALITA´ VARIE A SEGUITO DEGLI EVENTI CALAMITOSI DEL NOVEMBRE-DICEMBRE 2008 E DELL´APRILE 2009 (OPERE DI CONSOLIDAMENTO ATTIVO E REGIMAZIONE ACQUE),194000.00,http://dati.isprambiente.it/id/ihi/agreement/to168a/10,AP Piemonte 17/11/2010,2010-11-17,Frana,Baldissero Torinese,piemonte,torino,45.06982215013,7.80466411170386
http://dati.isprambiente.it/id/ihi/intervention/102/06,http://dati.isprambiente.it/id/place/47015,"Disgaggio, taglio alberi, barriere e reti paramassi, regimazione acque",200000.00,http://dati.isprambiente.it/id/ihi/agreement/102/06,DM 22/12/2004 (DS/2004/00626 - 10° stralcio),2004-12-22,Frana,Piteglio,toscana,pistoia,44.0228295825375,10.7610204973258
http://dati.isprambiente.it/id/ihi/intervention/pa183b/10,http://dati.isprambiente.it/id/place/82059,Consolidamento,800000.00,http://dati.isprambiente.it/id/ihi/agreement/pa183b/10,AP-int Sicilia  03/05/2011,2011-05-03,Frana,Pollina,sicilia,palermo,37.9876747031734,14.1187259955917
http://dati.isprambiente.it/id/ihi/intervention/pv106a/10,http://dati.isprambiente.it/id/place/18024,Sistemazione frana in località Recoaro (Opere stabilizzazione del versante),300000.00,http://dati.isprambiente.it/id/ihi/agreement/pv106a/10,AP Lombardia 04/11/2010,2010-11-04,Frana,Broni,lombardia,pavia,45.0702429714673,9.24508783292237
http://dati.isprambiente.it/id/ihi/intervention/dait@19_0499/xm,http://dati.isprambiente.it/id/place/46036,INTERVENTI DI MESSA IN SICUREZZA DEL TERRITORIO DAL DISSESTO IDROGEOLOGICO,1000000.00,http://dati.isprambiente.it/id/ihi/agreement/dait@19_0499/xm,Decreto_Min_int_DAIT_30_12_2019,2019-12-30,Non definito,missing,missing,missing,missing,missing
http://dati.isprambiente.it/id/ihi/intervention/cn119a/10,http://dati.isprambiente.it/id/place/4071,INTERVENTI DI CONSOLIDAMENTO S.C. VIA VECCHIA DEL PIANO E CONSOLIDAMENTO VERSANTE A VALLE DEL CENTRO STORICO (OPERE DI CONSOLIDAMENTO E REGIMAZIONE ACQUE),280000.00,http://dati.isprambiente.it/id/ihi/agreement/cn119a/10,AP Piemonte 17/11/2010,2010-11-17,Frana,Clavesana,piemonte,cuneo,44.4782565709329,7.92462636387182
http://dati.isprambiente.it/id/ihi/intervention/dait@19_0477/xm,http://dati.isprambiente.it/id/place/67014,INTERVENTI DI MESSA IN SICUREZZA DELLA STRUTTURA VIARIA COMUNALE 1<U+FFFD> LOTTO,1000000.00,http://dati.isprambiente.it/id/ihi/agreement/dait@19_0477/xm,Decreto_Min_int_DAIT_30_12_2019,2019-12-30,Non definito,Castilenti,abruzzo,teramo,42.5330886243299,13.9222114911876
http://dati.isprambiente.it/id/ihi/intervention/ve036a/10,http://dati.isprambiente.it/id/place/23001,Lavori di sistemazione idraulica del torrente Tasso dall´abitato di Affi alla confluenza nel  fiume Adige,450000.00,http://dati.isprambiente.it/id/ihi/agreement/ve036a/10,AP Veneto 23/12/2010,2010-12-23,Alluvione,Affi,veneto,verona,45.5568040855071,10.7767277715481
http://dati.isprambiente.it/id/ihi/intervention/318/99,http://dati.isprambiente.it/id/place/55032,ADEGUAMENTO SEZIONE IDRAULICA FOSSI RIVO E CALCINARO,387342.67,http://dati.isprambiente.it/id/ihi/agreement/318/99,DPCM 21/12/1999 (DSTN/2/27782),1999-12-21,Alluvione,Terni,umbria,terni,42.5795952688314,12.660560248045
http://dati.isprambiente.it/id/ihi/intervention/341/99,http://dati.isprambiente.it/id/place/41044,RIPULITURA ALVEO E REALIZZAZIONE DI N°1 VASCA DI ESPANSIONE CONTROLLATA,1032913.80,http://dati.isprambiente.it/id/ihi/agreement/341/99,DPCM 21/12/1999 (DSTN/2/27776),1999-12-21,Alluvione,Pesaro,marche,pesaro-e-urbino,43.8906888035954,12.8671607847578
http://dati.isprambiente.it/id/ihi/intervention/08ir412/g1,http://dati.isprambiente.it/id/place/36046,Messa in sicurezza del fiume Panaro dalla SP16 all'abitato di Marano sul Panaro,1280000.00,http://dati.isprambiente.it/id/ihi/agreement/08ir412/g1,Del CIPE 35 Piano Nazionale 24/07/2019,2019-07-24,Alluvione,Vignola,emilia-romagna,modena,44.4908352175022,11.0164115251075
http://dati.isprambiente.it/id/ihi/intervention/058/08,http://dati.isprambiente.it/id/place/102044,lavori di risanamento idrogeologico,900000.00,http://dati.isprambiente.it/id/ihi/agreement/058/08,DM 26/11/2007 (DEC/DDS/2007/1081 - 2°P. Strat.),2007-11-26,Frana,Tropea,calabria,vibo-valentia,38.6667648927248,15.8819890287098
http://dati.isprambiente.it/id/ihi/intervention/450/02,http://dati.isprambiente.it/id/place/22190,Messa in sicurezza versante.,434000.00,http://dati.isprambiente.it/id/ihi/agreement/450/02,DM 18/05/2004 (DS/2004/00164 - 9° stralcio),2004-05-18,Frana,Tenna,trentino-alto-adige,trento,46.022565836875,11.2610394193766
http://dati.isprambiente.it/id/ihi/intervention/ca032a/10,http://dati.isprambiente.it/id/place/92003,Lavori di sistemazione idraulica nel quartiere Santa Lucia (intervento aggiunto in Comitato Indirizzo e controllo del 4-12-2014),980000.00,http://dati.isprambiente.it/id/ihi/agreement/ca032a/10,AP-int Sardegna II 03/12/2013,2013-12-03,Alluvione,Assemini,sardegna,cagliari,39.2915474257704,9.04816885433888
http://dati.isprambiente.it/id/ihi/intervention/dait@19_0437/xm,http://dati.isprambiente.it/id/place/56001,MESSA IN SICUREZZA RUPE FRAZIONE TREVINANO - COMPLETAMENTO,900000.00,http://dati.isprambiente.it/id/ihi/agreement/dait@19_0437/xm,Decreto_Min_int_DAIT_30_12_2019,2019-12-30,Frana,Acquapendente,lazio,viterbo,42.7679213502302,11.8952368765262
http://dati.isprambiente.it/id/ihi/intervention/dait@19_0353/xm,http://dati.isprambiente.it/id/place/61072,ADEGUAMENTO DELLA RETE FOGNARIA E DEL SISTEMA DEPURATIVO,1047490.00,http://dati.isprambiente.it/id/ihi/agreement/dait@19_0353/xm,Decreto_Min_int_DAIT_30_12_2019,2019-12-30,Alluvione,Rocchetta e Croce,campania,caserta,41.2401478966219,14.1291939440941
http://dati.isprambiente.it/id/ihi/intervention/dait@19_0409/xm,http://dati.isprambiente.it/id/place/6176,CONSOLIDAMENTO DI  DELLA SCARPATA SOTTOSTANTE IL PALAZZO MUNICIPALE  - OPERE DI RIPRISTINO DELLA VIABILIT<U+FFFD> DELLA STRADA COMUNALE DELLA TRESENDA  INTRANSITABILE A CAUSA DI SMOTTAMENTI DAL  2014. RIPRISTINO SCARPATE A TUTELA DELL`INCOLUMIT<U+FFFD> PUBBLICA,225000.00,http://dati.isprambiente.it/id/ihi/agreement/dait@19_0409/xm,Decreto_Min_int_DAIT_30_12_2019,2019-12-30,Frana,Trisobbio,piemonte,alessandria,44.6595045332373,8.58647687000365
http://dati.isprambiente.it/id/ihi/intervention/dait@21_2608/xm,http://dati.isprambiente.it/id/place/88007,LAVORI DI MITIGAZIONE DEL RISCHIO IDROGEOLOGICO E REGIMENTAZIONE DELLE ACQUE PIOVANE NEL TERRITORIO COMUNALE DI MONTEROSSO ALMO (RG)?*C.DA PALMINTELLA E C.DA CASALE*LAVORI DI REGIMENTAZIONE DELLE ACQUE AD ELEVATO RISCHIO IDROGEOLOGICO A RIDOSSO DEL CENTR,995000.00,http://dati.isprambiente.it/id/ihi/agreement/dait@21_2608/xm,Decreto_Min_int_DAIT_23.02.2021,2021-02-23,Alluvione,Monterosso Almo,sicilia,ragusa,37.1026670690026,14.6998413594004
http://dati.isprambiente.it/id/ihi/intervention/dait@21_0848/xm,http://dati.isprambiente.it/id/place/61051,VIA MARTIRI DELLA GUERRA*VIA MARTIRI DELLA GUERRA*MESSA IN SICUREZZA DEL TERRITORIO A RISCHIO IDROGEOLOGICO FRAZIONE CASPOLI VIA MARTIRI DELLA GUERRA TRAMITE REALIZZAZIONE DI MURI - GABBIONATE ETC,515000.00,http://dati.isprambiente.it/id/ihi/agreement/dait@21_0848/xm,Decreto_Min_int_DAIT_23.02.2021,2021-02-23,Frana,Mignano Monte Lungo,campania,caserta,41.407487274951,13.9762864211323
http://dati.isprambiente.it/id/ihi/intervention/397/09,http://dati.isprambiente.it/id/place/87003,OPERE CONSOLIDAMENTO RISCHIO IDROGEOLOGICO CENTRO ABITATO,1000000.00,http://dati.isprambiente.it/id/ihi/agreement/397/09,DM 27/11/2008 (DDS/DEC/2008/0913),2008-11-27,Non definito,Aci Catena,sicilia,catania,37.5854251179715,15.1426349056242
http://dati.isprambiente.it/id/ihi/intervention/184/07,http://dati.isprambiente.it/id/place/6018,Opere di consolidamento del movimento franoso in Frazione Castel Ratti - II Lotto,400000.00,http://dati.isprambiente.it/id/ihi/agreement/184/07,DM 03/11/2006 (DDS/DEC/2006/0632 - 1°P. Strat.),2006-11-03,Frana,Borghetto di Borbera,piemonte,alessandria,44.7346895636632,8.96771759203125
http://dati.isprambiente.it/id/ihi/intervention/ud023b/10,http://dati.isprambiente.it/id/place/30124,Interventi per la messa in sicurezza di pareti rocciose nelle frazioni di Avasinis e Braulins,210000.00,http://dati.isprambiente.it/id/ihi/agreement/ud023b/10,AP Friuli Venezia Giulia 31/01/2011,2011-01-31,Frana,Trasaghis,friuli-venezia-giulia,udine,46.2948274103661,13.0294387428524
http://dati.isprambiente.it/id/ihi/intervention/dait@21_0262/xm,http://dati.isprambiente.it/id/place/76063,INTERVENTO DI MESSA IN SICUREZZA DEL TERRITORIO A RISCHIO IDROGEOLOGICO - RIPRISTINO DELLE INFRASTRUTTURE DANNEGGIATE INTERESSANTI LE AREE RURALI: 1) LAVANGONE- 2) CUGNO DELL  ORSO- 3) SAN LUCA SCAFARELLI- 4) AVIGLIANO SCALO- 5) MACCHIA MALIGNA.*VIA SAN,850000.00,http://dati.isprambiente.it/id/ihi/agreement/dait@21_0262/xm,Decreto_Min_int_DAIT_23.02.2021,2021-02-23,Frana,Potenza,basilicata,potenza,40.659286281691,15.8067458006989
http://dati.isprambiente.it/id/ihi/intervention/bi081a/10,http://dati.isprambiente.it/id/place/96021,COMPLETAMENTO E RIPRISTINO DIFESE SPONDALI TORRENTE SESSERA  E MANUTENZIONE IDRAULICA TORRENTE SESSERA NEI COMUNI DI CREVACUORE E PRAY (LAVORI DI MANUTENZIONE SUL CORSO D´ACQUA E SU OPERE DI DIFESA),300000.00,http://dati.isprambiente.it/id/ihi/agreement/bi081a/10,AP Piemonte 17/11/2010,2010-11-17,Alluvione,Crevacuore,piemonte,biella,45.6801396551036,8.24860079830381
http://dati.isprambiente.it/id/ihi/intervention/dait@21_1823/xm,http://dati.isprambiente.it/id/place/43043,MANUTENZIONE STRAORDINARIA DELLA STRADA TERGI*VIA TERGI*MANUTENZIONE STRAORDINARIA DELLA STRADA TERGI,200000.00,http://dati.isprambiente.it/id/ihi/agreement/dait@21_1823/xm,Decreto_Min_int_DAIT_23.02.2021,2021-02-23,Non definito,Potenza Picena,marche,macerata,43.3627111054199,13.614381200407
http://dati.isprambiente.it/id/ihi/intervention/dait@21_2145/xm,http://dati.isprambiente.it/id/place/5088,PIAZZALE A PARCHEGGIO E VIABILITA' A LATO DEL CIMITERO COMUNALE*VIA ROMA*OPERE DI MESSA IN SICUREZZA DELL'ESISTENTE STRUTTURA SOGGETTA A FRANA,260000.00,http://dati.isprambiente.it/id/ihi/agreement/dait@21_2145/xm,Decreto_Min_int_DAIT_23.02.2021,2021-02-23,Frana,Quaranti,piemonte,asti,44.7501338053229,8.44878111508416
http://dati.isprambiente.it/id/ihi/intervention/to191a/10,http://dati.isprambiente.it/id/place/1161,REALIZZAZIONE CANALE SCOLMATORE RIO FOSSASCO (SCATOLARE IN C.A. IN PARTE COPERTO),700000.00,http://dati.isprambiente.it/id/ihi/agreement/to191a/10,AP Piemonte 17/11/2010,2010-11-17,Alluvione,Montanaro,piemonte,torino,45.2342468454449,7.84738272763883
http://dati.isprambiente.it/id/ihi/intervention/514/09,http://dati.isprambiente.it/id/place/78117,Consolidamento area in frana nella località Giardino del Centro storico,200000.00,http://dati.isprambiente.it/id/ihi/agreement/514/09,DM 27/11/2008 (DDS/DEC/2008/0912),2008-11-27,Frana,Sangineto,calabria,cosenza,39.6115119725793,15.9317595769205
http://dati.isprambiente.it/id/ihi/intervention/14ir543/g1,http://dati.isprambiente.it/id/place/94037,Intervento per la mitigazione del rischio idrogeologico e idraulico in località Castel di Croce-Scal,1367223.12,http://dati.isprambiente.it/id/ihi/agreement/14ir543/g1,Del CIPE 35 Piano Nazionale 24/07/2019,2019-07-24,Frana,Poggio Sannita,molise,isernia,41.7767436854107,14.4231546035635
http://dati.isprambiente.it/id/ihi/intervention/dait@21_2666/xm,http://dati.isprambiente.it/id/place/53021,CIMITERO COMUNALE - 58036 ROCCATEDERIGHI*VIA TRENTO*CONSOLIDAMENTO E MESSA IN SICUREZZA STRUTTURE CIMITERIALI,265000.00,http://dati.isprambiente.it/id/ihi/agreement/dait@21_2666/xm,Decreto_Min_int_DAIT_23.02.2021,2021-02-23,Non definito,Roccastrada,toscana,grosseto,42.996571144849,11.130059612584
http://dati.isprambiente.it/id/ihi/intervention/dait@19_0250/xm,http://dati.isprambiente.it/id/place/58102,MESSA IN SICUREZZA E MITIGAZIONE RISCHIO IDROGEOLOGICO DEL TRATTO STRADALE VIA DEI CAVALLI,750000.00,http://dati.isprambiente.it/id/ihi/agreement/dait@19_0250/xm,Decreto_Min_int_DAIT_30_12_2019,2019-12-30,Non definito,Segni,lazio,roma,41.691196147936,13.0053744893601
http://dati.isprambiente.it/id/ihi/intervention/105/02,http://dati.isprambiente.it/id/place/76076,CONSOLIDAMENTO,774685.00,http://dati.isprambiente.it/id/ihi/agreement/105/02,DM 04/12/2002 (DT/2002/0281 - 3° stralcio),2002-12-04,Frana,San Fele,basilicata,potenza,40.8060729012024,15.6298549687733
http://dati.isprambiente.it/id/ihi/intervention/dait@21_2771/xm,http://dati.isprambiente.it/id/place/54046,FOSSO DELLA PEZZA IN LOC. PONTE CALCARA*FRAZIONE PONTE CALCARA*MESSA IN SICUREZZA DEL FOSSO DELLA PEZZA IN LOC. PONTE CALCARA MEDIANTE INTERVENTO DI RIFACIMENTO DEGLI ARGINI IN DX E SX IDRAULICA DANNEGGIATI DAGLI EVENTI METEO AVVERSI DEL NOVEMBRE 2013,157000.00,http://dati.isprambiente.it/id/ihi/agreement/dait@21_2771/xm,Decreto_Min_int_DAIT_23.02.2021,2021-02-23,Alluvione,Scheggia e Pascelupo,umbria,perugia,43.425842679886,12.7412527466266
http://dati.isprambiente.it/id/ihi/intervention/039/99,http://dati.isprambiente.it/id/place/17142,REALIZZAZIONE OPERE DI DRENAGGIO E MONITORAGGIO DI ESTESI MOVIMENTI FRANOSI,206582.76,http://dati.isprambiente.it/id/ihi/agreement/039/99,DPCM 21/12/1999 (DSTN/2/27773),1999-12-21,Frana,Pian Camuno,lombardia,brescia,45.8301599939076,10.1641338296511
http://dati.isprambiente.it/id/ihi/intervention/dait@21_0911/xm,http://dati.isprambiente.it/id/place/63079,"MESSA IN SICUREZZA DEL TERRITORIO DAL DISSESTO IDROGEOLOGICO TRAMITE INTERVENTI DI MITIGAZIONE DEL RISCHIO NELL  ANTICO BORGO DEL CASAMALE, NELLA ZONA DI S.MARIA A CASTELLO ED IN ALTRI AMBITI DEL TERRITORIO COMUNALE INTERESSATI DA FENOMENI FRANOSI*VARI A",968000.00,http://dati.isprambiente.it/id/ihi/agreement/dait@21_0911/xm,Decreto_Min_int_DAIT_23.02.2021,2021-02-23,Frana,Somma Vesuviana,campania,napoli,40.8736279138798,14.4441384218529
http://dati.isprambiente.it/id/ihi/intervention/076/02,http://dati.isprambiente.it/id/place/69081,SISTEMAZIONE IDRAULICA,1549370.00,http://dati.isprambiente.it/id/ihi/agreement/076/02,DM 04/12/2002 (DT/2002/0282 - 2° stralcio),2002-12-04,Alluvione,San Giovanni Teatino,abruzzo,chieti,42.4123687040151,14.1894115193242
http://dati.isprambiente.it/id/ihi/intervention/211/99,http://dati.isprambiente.it/id/place/35040,"RICALIBRATURA SEZIONE DI DEFLUSSO E MANUTENZIONE IDRAULICA, DIFESE SPONDALI",1859244.84,http://dati.isprambiente.it/id/ihi/agreement/211/99,DPCM 21/12/1999 (DSTN/2/27771),1999-12-21,Alluvione,Scandiano,emilia-romagna,reggio-nellemilia,44.598800337671,10.6899139471885
http://dati.isprambiente.it/id/ihi/intervention/dait@21_1796/xm,http://dati.isprambiente.it/id/place/109019,SCARPATA A RIDOSSO DELLE MURA OVEST DEL CENTRO STORICO CARATTERIZZATA DA FENOMENO FRANOSO RICADENTE IN ZONA R3*VIA CIRCONVALLAZIONE BELVEDERE - PAGLIUCA CLETO*CONSOLIDAMENTO SCARPATA DI MONTE - RICOSTRUZIONE TRATTO MURO IN C.A. - REALIZZAZIONE CORDOLI CO,900000.00,http://dati.isprambiente.it/id/ihi/agreement/dait@21_1796/xm,Decreto_Min_int_DAIT_23.02.2021,2021-02-23,Frana,Monteleone di Fermo,marche,fermo,43.0571940730977,13.5312920122365
http://dati.isprambiente.it/id/ihi/intervention/dait@21_1866/xm,http://dati.isprambiente.it/id/place/70001,MITIGAZIONE DEI DISSESTI IDROGEOLOGICI A VALLE DI VIA LAME E IN C.DA CERRITELLO*VIA LAME*MITIGAZIONE DEI DISSESTI IDROGEOLOGICI,600000.00,http://dati.isprambiente.it/id/ihi/agreement/dait@21_1866/xm,Decreto_Min_int_DAIT_23.02.2021,2021-02-23,Non definito,Acquaviva Collecroce,molise,campobasso,41.8741739428681,14.7458240539895
http://dati.isprambiente.it/id/ihi/intervention/dait@19_0450/xm,http://dati.isprambiente.it/id/place/87054,RECUPERO DEL BOSCO COMUNALE SANT`ANGELO,116000.00,http://dati.isprambiente.it/id/ihi/agreement/dait@19_0450/xm,Decreto_Min_int_DAIT_30_12_2019,2019-12-30,Non definito,Vizzini,sicilia,catania,37.175166813762,14.7812370300159
http://dati.isprambiente.it/id/ihi/intervention/308/09,http://dati.isprambiente.it/id/place/6120,Sistemazione dissesto franoso,350000.00,http://dati.isprambiente.it/id/ihi/agreement/308/09,DM 10/11/2008 (DDS/DEC/2008/0855 - Ann. 2008),2008-11-10,Frana,Ottiglio,piemonte,alessandria,45.0495177838633,8.34280617089433
http://dati.isprambiente.it/id/ihi/intervention/me072a/10,http://dati.isprambiente.it/id/place/83030,"Disgaggiamento massi, messa in sicurezza versante - C.da Galini",500000.00,http://dati.isprambiente.it/id/ihi/agreement/me072a/10,AP Sicilia 30/03/2010,2010-03-30,Frana,Galati Mamertino,sicilia,messina,38.0030652624939,14.7902244062979
http://dati.isprambiente.it/id/ihi/intervention/me102b/10,http://dati.isprambiente.it/id/place/83072,Consolidamento del centro abitato,850000.00,http://dati.isprambiente.it/id/ihi/agreement/me102b/10,AP Sicilia 30/03/2010,2010-03-30,Non definito,Roccalumera,sicilia,messina,37.9892472450462,15.3791060464599
http://dati.isprambiente.it/id/ihi/intervention/dait@19_0377/xm,http://dati.isprambiente.it/id/place/87057,"L`INTERVENTO CONSISTE NELLA SISTEMAZIONE DELLE OPERE SPONDALI DELL`IMPLUVIO CHE ATTRAVERSA LA CONTRADA PETROSINO AL FINE DI ELIMINARE IL PERICOLO DELLE PIENE, INOLTRE VERR<U+FFFD> RIQUALIFICATA L`AREA DEMANIALE CON LA MESSA IN OPERA DI ARREDO URBANO",700000.00,http://dati.isprambiente.it/id/ihi/agreement/dait@19_0377/xm,Decreto_Min_int_DAIT_30_12_2019,2019-12-30,Alluvione,Maniace,sicilia,catania,37.8767101013616,14.7865880679566
http://dati.isprambiente.it/id/ihi/intervention/cs048a/10,http://dati.isprambiente.it/id/place/78051,Interventi integrativi di mitigazione del rischio di frana e di messa in sicurezza in loc. Madonna delle Grazie,1000000.00,http://dati.isprambiente.it/id/ihi/agreement/cs048a/10,AP Calabria 25/11/2010,2010-11-25,Frana,Fagnano Castello,calabria,cosenza,39.5552790363591,16.0523598396983
